{"last_updated": "05/04/2024 00:00:00", "stations": [{"site_id": "gcqfn1wd5k4j", "brand": "ASDA", "address": "Abbey Park - North London Road, Coventry", "postcode": "CV3 4AR", "location": {"latitude": 52.391463, "longitude": -1.484944}, "prices": {"E10": 144.7, "B7": 153.7}},{"site_id": "gcjw4hhp6ywh", "brand": "ASDA", "address": "Riverside Retail Park, Aberdare", "postcode": "CF44 0AH", "location": {"latitude": 51.702332, "longitude": -3.416855}, "prices": {"E10": 142.7, "B7": 152.7}},{"site_id": "gfj6057mn7se", "brand": "ASDA", "address": "46 Dunkeld Street, Aberfeldy", "postcode": "PH15 2AF", "location": {"latitude": 56.620278, "longitude": -3.862503}, "prices": {"E10": 148.7, "B7": 157.7}},{"site_id": "gcw3f404j0sc", "brand": "ASDA", "address": "Hyndburn Road, Accrington", "postcode": "BB5 1PY", "location": {"latitude": 53.756449, "longitude": -2.372825}, "prices": {"E10": 142.7, "B7": 150.7}},{"site_id": "gcnvgfzs2pgq", "brand": "ASDA", "address": "Park Road, Faringdon", "postcode": "SN7 7BU", "location": {"latitude": 51.650868, "longitude": -1.577681}, "prices": {"E10": 149.7, "B7": 154.7}},{"site_id": "gcrn076n5e8h", "brand": "ASDA", "address": "Chesterfield Rd, Alfreton", "postcode": "DE55 6AW", "location": {"latitude": 53.114062, "longitude": -1.396272}, "prices": {"E10": 147.7, "B7": 157.7}},{"site_id": "gctbkcge1y1u", "brand": "ASDA", "address": "Ormskirk Road, Liverpool", "postcode": "L10 3LN", "location": {"latitude": 53.489995, "longitude": -2.948134}, "prices": {"E10": 142.7, "B7": 152.7}},{"site_id": "u10j2f87ut0h", "brand": "ASDA", "address": "19 Aldersbrook Road, Greater London", "postcode": "E12 5HH", "location": {"latitude": 51.562279, "longitude": 0.033447}, "prices": {"E10": 147.7, "B7": 153.7}},{"site_id": "gcvr1zcguq8c", "brand": "ASDA", "address": "Whins Road, Alloa", "postcode": "FK10 3SD", "location": {"latitude": 56.1194, "longitude": -3.78232}, "prices": {"E10": 144.7, "B7": 151.7}},{"site_id": "gcqrdrnfh9nk", "brand": "ASDA", "address": "Dunham Road, Altrincham", "postcode": "WA14 4NX", "location": {"latitude": 53.388730, "longitude": -2.351795}, "prices": {"E10": 147.7, "B7": 154.7}},{"site_id": "gcqrksxqfqs8", "brand": "ASDA", "address": "Altrincham Road, Wilmslow", "postcode": "SK9 5NN", "location": {"latitude": 53.332448, "longitude": -2.254111}, "prices": {"E10": 146.7, "B7": 153.7}},{"site_id": "gcqrf0z0djjt", "brand": "ASDA", "address": "90 George Richards Way, Broadheath, Altrincham", "postcode": "WA14 5ZR", "location": {"latitude": 53.398236, "longitude": -2.364485}, "prices": {"E10": 144.7, "B7": 151.7}},{"site_id": "gcwfmhm1kf01", "brand": "ASDA", "address": "495 Harrogate Road, Leeds", "postcode": "LS17 7DA", "location": {"latitude": 53.856572, "longitude": -1.531034}, "prices": {"E10": 146.7, "B7": 153.7}},{"site_id": "gcng0h8cf4v2", "brand": "ASDA", "address": "Mid Summer Place, Salisbury", "postcode": "SP4 7SQ", "location": {"latitude": 51.177378, "longitude": -1.756689}, "prices": {"E10": 141.7, "B7": 152.7}},{"site_id": "gcyck033zj0b", "brand": "ASDA", "address": "Moorfarm Roundabout, Cramlington", "postcode": "NE23 7QA", "location": {"latitude": 55.065163, "longitude": -1.579758}, "prices": {"E10": 145.7, "B7": 154.7}},{"site_id": "gfn1sw82gxsx", "brand": "ASDA", "address": "Westway Retail Park, Dundee Road, Arbroath", "postcode": "DD11 2NQ", "location": {"latitude": 56.550282, "longitude": -2.612557}, "prices": {"E10": 143.7, "B7": 150.7}},{"site_id": "gcusd2vbmqxg", "brand": "ASDA", "address": "Harbour Road, Adrossan", "postcode": "KA22 8BZ", "location": {"latitude": 55.63851, "longitude": -4.81792}, "prices": {"E10": 144.7, "B7": 153.7}},{"site_id": "gcvmujb97yvx", "brand": "ASDA", "address": "Station Road, Armadale", "postcode": "EH48 2JS", "location": {"latitude": 55.886474, "longitude": -3.690379}, "prices": {"E10": 144.7, "B7": 152.7}},{"site_id": "gcwfh1sjpc9d", "brand": "ASDA", "address": "Armley Road, Leeds", "postcode": "LS12 2QN", "location": {"latitude": 53.798224, "longitude": -1.576425}, "prices": {"E10": 147.7, "B7": 153.7}},{"site_id": "gcrjw35ngpww", "brand": "ASDA", "address": "111-127 Front Street, Arnold, Nottingham", "postcode": "NG5 7ED", "location": {"latitude": 53.005687, "longitude": -1.128233}, "prices": {"E10": 142.7, "B7": 152.7}},{"site_id": "gcmz9gwrk107", "brand": "ASDA", "address": "Woodchurch Road, Birkenhead", "postcode": "CH49 5PD", "location": {"latitude": 53.370086, "longitude": -3.078403}, "prices": {"E10": 144.7, "B7": 153.7}},{"site_id": "gcps2xp0j8gn", "brand": "ASDA", "address": "High Street, Ascot", "postcode": "SL5 7HB", "location": {"latitude": 51.410261, "longitude": -0.672530}, "prices": {"E10": 148.7, "B7": 155.7}},{"site_id": "gcycunp936gs", "brand": "ASDA", "address": "Portland Park, Lintonville Terrace, Ashington", "postcode": "NE63 9XG", "location": {"latitude": 55.184674, "longitude": -1.571892}, "prices": {"E10": 143.7, "B7": 154.7}},{"site_id": "gcw822dkfw37", "brand": "ASDA", "address": "Cavendish Street, Ashton-Under-Lyne", "postcode": "OL6 7PF", "location": {"latitude": 53.483829, "longitude": -2.094949}, "prices": {"E10": 141.7, "B7": 151.7}},{"site_id": "gcw227f137e4", "brand": "ASDA", "address": "Manchester Road, Manchester", "postcode": "M29 7BQ", "location": {"latitude": 53.502278, "longitude": -2.447146}, "prices": {"E10": 143.7, "B7": 153.7}},{"site_id": "gcrpd69644rh", "brand": "ASDA", "address": "Worksop Road, Sheffield", "postcode": "S26 2EA", "location": {"latitude": 53.363698, "longitude": -1.305561}, "prices": {"E10": 145.7, "B7": 154.7}},{"site_id": "gcqdsgr183jg", "brand": "ASDA", "address": "305 Corporation Street, Birmingham", "postcode": "B4 7DT", "location": {"latitude": 52.488816, "longitude": -1.890970}, "prices": {"E10": 145.7, "B7": 154.7}},{"site_id": "gcuex7v522d1", "brand": "ASDA", "address": "Liberator Drive, Heathfield Retail Park, Ayr", "postcode": "KA8 9BF", "location": {"latitude": 55.480174, "longitude": -4.596262}, "prices": {"E10": 142.7, "B7": 151.7}},{"site_id": "gcexrrxsjt5h", "brand": "ASDA", "address": "Park Street, Ballyclare", "postcode": "BT39 9DQ", "location": {"latitude": 54.753845, "longitude": -5.998971}, "prices": {"E10": 140.7, "B7": 150.7}},{"site_id": "gcg81k9xve76", "brand": "ASDA", "address": "121 Broughshane Street, Ballymena", "postcode": "BT43 6EE", "location": {"latitude": 54.869817, "longitude": -6.270892}, "prices": {"E10": 139.9, "B7": 148.7}},{"site_id": "gcr01ccvbz80", "brand": "ASDA", "address": "Oxford Road, Banbury", "postcode": "OX15 4AB", "location": {"latitude": 52.042603, "longitude": -1.327494}, "prices": {"E10": 147.7, "B7": 151.7}},{"site_id": "gcmne91eyyy3", "brand": "ASDA", "address": "Junction A5/55 Expressway, Bangor", "postcode": "LL57 4BG", "location": {"latitude": 53.203499, "longitude": -4.105557}, "prices": {"E10": 148.7, "B7": 156.7}},{"site_id": "gcmnccpwj6yf", "brand": "ASDA", "address": "Farrar Road, Bangor", "postcode": "LL57 1LJ", "location": {"latitude": 53.224381, "longitude": -4.131761}, "prices": {"E10": 144.7, "B7": 153.7}},{"site_id": "gceyzn84ugbk", "brand": "ASDA", "address": "89-105 Main St, Bangor", "postcode": "BT20 4SD", "location": {"latitude": 54.660222, "longitude": -5.668741}, "prices": {"E10": 139.7, "B7": 147.7}},{"site_id": "gcqd6fyv9z95", "brand": "ASDA", "address": "51 Barnes Hill, Birmingham", "postcode": "B29 5UP", "location": {"latitude": 52.442849, "longitude": -1.979179}, "prices": {"E10": 140.7, "B7": 150.7}},{"site_id": "gcwbwqmvqkzc", "brand": "ASDA", "address": "Old Mill Lane, Barnsley", "postcode": "S71 1LN", "location": {"latitude": 53.560015, "longitude": -1.473065}, "prices": {"E10": 143.7, "B7": 151.7}},{"site_id": "gcj4e6qg3fzb", "brand": "ASDA", "address": "Anchorwood Retail Park, Taw Wharf, Barnstaple", "postcode": "EX31 2BN", "location": {"latitude": 51.076563, "longitude": -4.065875}, "prices": {"E10": 143.7, "B7": 151.7}},{"site_id": "gcqpnb6c70xz", "brand": "ASDA", "address": "23-29 Leicester Street, Barons Quay, Northwich", "postcode": "CW9 5LG", "location": {"latitude": 53.263913, "longitude": -2.512565}, "prices": {"E10": 142.7, "B7": 151.7}},{"site_id": "gcuvkn6f6ddu", "brand": "ASDA", "address": "4 Church Road, Barrhead", "postcode": "G78 1FA", "location": {"latitude": 55.800762, "longitude": -4.391594}, "prices": {"E10": 142.7, "B7": 150.7}},{"site_id": "gcw633rdurqc", "brand": "ASDA", "address": "Holm Road, Clitheroe", "postcode": "BB7 9WF", "location": {"latitude": 53.840420, "longitude": -2.395527}, "prices": {"E10": 143.7, "B7": 152.7}},{"site_id": "gcteyke66d8h", "brand": "ASDA", "address": "Walney Road, Barrow-In-Furness", "postcode": "LA14 5UG", "location": {"latitude": 54.121812, "longitude": -3.236439}, "prices": {"E10": 144.7, "B7": 152.7}},{"site_id": "gcjsmkt55ek2", "brand": "ASDA", "address": "Ffordd Y Mileniwm, Barry", "postcode": "CF62 5AT", "location": {"latitude": 51.397238, "longitude": -3.270975}, "prices": {"E10": 144.7, "B7": 154.7}},{"site_id": "u10m6eckyrvs", "brand": "ASDA", "address": "Eastgate Shopping Centre, Basildon", "postcode": "SS14 1AE", "location": {"latitude": 51.569448, "longitude": 0.460496}, "prices": {"E10": 143.7, "B7": 151.7}},{"site_id": "gcn8t3q6ku0d", "brand": "ASDA", "address": "Bath Road, Bournemouth", "postcode": "BH1 2NJ", "location": {"latitude": 50.720019, "longitude": -1.869557}, "prices": {"E10": 147.7, "B7": 154.7}},{"site_id": "gcppsu00f9ys", "brand": "ASDA", "address": "Baynards Green Service Station, A43, Bicester", "postcode": "OX27 7SG", "location": {"latitude": 51.958466, "longitude": -1.202709}, "prices": {"E10": 154.7, "B7": 162.7}},{"site_id": "gcq59nnuq9um", "brand": "ASDA", "address": "Hereford Road, Shrewsbury", "postcode": "SY3 0DA", "location": {"latitude": 52.682076, "longitude": -2.759965}, "prices": {"E10": 148.7, "B7": 153.7}},{"site_id": "gcuyjerngg5j", "brand": "ASDA", "address": "80 Milngavie Road, Glasgow", "postcode": "G61 2TX", "location": {"latitude": 55.917466, "longitude": -4.318835}, "prices": {"E10": 143.7, "B7": 153.7}},{"site_id": "u10j164kt8e3", "brand": "ASDA", "address": "Tollgate Road, Beckton", "postcode": "E6 5JP", "location": {"latitude": 51.515668, "longitude": 0.058262}, "prices": {"E10": 143.7, "B7": 153.7}},{"site_id": "gcnhsvn6b08s", "brand": "ASDA", "address": "East Street, Bristol", "postcode": "BS3 4JY", "location": {"latitude": 51.443957, "longitude": -2.595176}, "prices": {"E10": 144.7, "B7": 152.7}},{"site_id": "gcwcukh7f4v1", "brand": "ASDA", "address": "Old Lane, Beeston, Leeds", "postcode": "LS11 8AG", "location": {"latitude": 53.7659, "longitude": -1.563835}, "prices": {"E10": 139.7, "B7": 148.7}},{"site_id": "gcpqjpdmdxdk", "brand": "ASDA", "address": "Bell Street, Princes Risborough", "postcode": "HP27 0DG", "location": {"latitude": 51.721848, "longitude": -0.831862}, "prices": {"E10": 148.7, "B7": 152.7}},{"site_id": "gcpedgy96sdd", "brand": "ASDA", "address": "Woking Road, Guildford", "postcode": "GU1 1NH", "location": {"latitude": 51.260925, "longitude": -0.573568}, "prices": {"E10": 145.7, "B7": 156.7}},{"site_id": "gcpv8c9p6urb", "brand": "ASDA", "address": "Belmont Circle, Harrow", "postcode": "HA3 8SF", "location": {"latitude": 51.601277, "longitude": -0.317093}, "prices": {"E10": 144.7, "B7": 154.7}},{"site_id": "gcycj00tb2s9", "brand": "ASDA", "address": "Whitley Road, Newcastle upon Tyne", "postcode": "NE12 9SJ", "location": {"latitude": 55.020552, "longitude": -1.536797}, "prices": {"E10": 143.7, "B7": 152.7}},{"site_id": "gcpvne36gtnz", "brand": "ASDA", "address": "112 Vallance Road, London", "postcode": "E1 5BW", "location": {"latitude": 51.522486, "longitude": -0.063939}, "prices": {"E10": 141.7, "B7": 151.7}},{"site_id": "gcqf2gm95zy5", "brand": "ASDA", "address": "Coventry Road, Solihull", "postcode": "B92 0EH", "location": {"latitude": 52.444819, "longitude": -1.721830}, "prices": {"E10": 148.7, "B7": 157.7}},{"site_id": "gchfpteqfd3j", "brand": "ASDA", "address": "Clovelly Road, Bideford", "postcode": "EX39 3QU", "location": {"latitude": 51.00771, "longitude": -4.23816}, "prices": {"E10": 143.7, "B7": 153.7}},{"site_id": "u105bv8959tq", "brand": "ASDA", "address": "141 Main Road, Westerham", "postcode": "TN16 3DX", "location": {"latitude": 51.314633, "longitude": 0.033792}, "prices": {"E10": 146.7, "B7": 156.7}},{"site_id": "gcw06pwp93q4", "brand": "ASDA", "address": "275 Upholland Road, Wigan", "postcode": "WN5 7DN", "location": {"latitude": 53.523795, "longitude": -2.716350}, "prices": {"E10": 144.7, "B7": 152.7}},{"site_id": "gcq7qhd1msfg", "brand": "ASDA", "address": "Wolverhampton Road, Codsall", "postcode": "WV8 1PD", "location": {"latitude": 52.624197, "longitude": -2.186554}, "prices": {"E10": 147.7, "B7": 152.7}},{"site_id": "gcqpy7w7ewjs", "brand": "ASDA", "address": "1 Dewhurst Road, Warrington", "postcode": "WA3 7PG", "location": {"latitude": 53.414385, "longitude": -2.526637}, "prices": {"E10": 143.7, "B7": 151.7}},{"site_id": "gcqyz80hrwft", "brand": "ASDA", "address": "Derby Road, Chesterfield", "postcode": "S40 2EU", "location": {"latitude": 53.218540, "longitude": -1.427897}, "prices": {"E10": 147.7, "B7": 154.7}},{"site_id": "gfjc6s22p2cn", "brand": "ASDA", "address": "Birkhill Auto Point, Dundee", "postcode": "DD2 5RG", "location": {"latitude": 56.493077, "longitude": -3.053543}, "prices": {"E10": 145.6, "B7": 153.7}},{"site_id": "gcwycyjns2mb", "brand": "ASDA", "address": "South Church Road, Bishop Auckland", "postcode": "DL14 7LB", "location": {"latitude": 54.65803, "longitude": -1.67133}, "prices": {"E10": 140.7, "B7": 150.7}},{"site_id": "gcvn04g48exf", "brand": "ASDA", "address": "276 Kirkintilloch Road, Glasgow", "postcode": "G64 2PT", "location": {"latitude": 55.913992, "longitude": -4.214598}, "prices": {"E10": 142.7, "B7": 152.7}},{"site_id": "gcw2gb89u16v", "brand": "ASDA", "address": "530 Manchester Road, Bury", "postcode": "BL9 9ST", "location": {"latitude": 53.570807, "longitude": -2.293848}, "prices": {"E10": 147.7, "B7": 153.7}},{"site_id": "gctf53d64e3x", "brand": "ASDA", "address": "Cherry Tree Road, Blackpool", "postcode": "FY4 4QH", "location": {"latitude": 53.796873, "longitude": -3.017296}, "prices": {"E10": 142.7, "B7": 151.7}},{"site_id": "gcjtzmfk1y3j", "brand": "ASDA", "address": "High Street, Blackwood", "postcode": "NP12 0NT", "location": {"latitude": 51.668049, "longitude": -3.193855}, "prices": {"E10": 143.7, "B7": 151.7}},{"site_id": "gcvj6fw2m0cc", "brand": "ASDA", "address": "East Ave, Blantyre", "postcode": "G72 0JB", "location": {"latitude": 55.779669, "longitude": -4.091449}, "prices": {"E10": 147.7, "B7": 154.7}},{"site_id": "gcvj6uws2npw", "brand": "ASDA", "address": "Glasgow Road, Blantyre", "postcode": "G72 0AQ", "location": {"latitude": 55.794753, "longitude": -4.094542}, "prices": {"E10": 143.7, "B7": 151.7}},{"site_id": "gcrpxygktuc9", "brand": "ASDA", "address": "Moto Service Area, Hilltop Roundabout, Worksop", "postcode": "S81 8HG", "location": {"latitude": 53.388305, "longitude": -1.061390}, "prices": {"E10": 166.9, "B7": 176.9}},{"site_id": "gcycses0uvme", "brand": "ASDA", "address": "Cowpen Road, Blyth", "postcode": "NE24 4LZ", "location": {"latitude": 55.127152, "longitude": -1.555070}, "prices": {"E10": 145.7, "B7": 154.7}},{"site_id": "gbuxhumt6s4d", "brand": "ASDA", "address": "Launceston Road, Bodmin", "postcode": "PL31 2AR", "location": {"latitude": 50.47602, "longitude": -4.70314}, "prices": {"E10": 146.7, "B7": 155.7}},{"site_id": "gcybwenbxtbz", "brand": "ASDA", "address": "North Road, Boldon Colliery, Newcastle upon Tyne", "postcode": "NE35 9AR", "location": {"latitude": 54.947773, "longitude": -1.462712}, "prices": {"E10": 142.7, "B7": 151.7}},{"site_id": "gcw2bteuc2hy", "brand": "ASDA", "address": "Moss Bank Way, Bolton", "postcode": "BL1 8QG", "location": {"latitude": 53.600355, "longitude": -2.433746}, "prices": {"E10": 142.7, "B7": 151.7}},{"site_id": "gctbhmtstnt3", "brand": "ASDA", "address": "Orrell Lane, Bootle", "postcode": "L20 6HX", "location": {"latitude": 53.46852, "longitude": -2.96952}, "prices": {"E10": 142.7, "B7": 151.7}},{"site_id": "gctb5f88udbe", "brand": "ASDA", "address": "81 Strand Road, Bootle", "postcode": "L20 4BB", "location": {"latitude": 53.451377, "longitude": -2.998387}, "prices": {"E10": 142.7, "B7": 152.7}},{"site_id": "gcpqtxx2ybd9", "brand": "ASDA", "address": "Wendover Road, Aylesbury", "postcode": "HP21 9LB", "location": {"latitude": 51.809770, "longitude": -0.803559}, "prices": {"E10": 147.7, "B7": 153.7}},{"site_id": "gcrvrk8thdef", "brand": "ASDA", "address": "Lister Way, Boston", "postcode": "PE21 8EQ", "location": {"latitude": 52.979693, "longitude": -0.032074}, "prices": {"E10": 143.7, "B7": 151.7}},{"site_id": "gcvj7xmhccb3", "brand": "ASDA", "address": "M74 Southbound, Bothwell", "postcode": "G71 8BG", "location": {"latitude": 55.815220, "longitude": -4.060971}, "prices": {"E10": 171.9, "B7": 180.9}},{"site_id": "gcn8td7z1m3p", "brand": "ASDA", "address": "157 Holdenhurst Road, Bournemouth", "postcode": "BH8 8DQ", "location": {"latitude": 50.726481, "longitude": -1.862470}, "prices": {"E10": 144.7, "B7": 155.7}},{"site_id": "gcpvpkrumb3n", "brand": "ASDA", "address": "127-131 Bow Road, London", "postcode": "E3 2AN", "location": {"latitude": 51.528121, "longitude": -0.021902}, "prices": {"E10": 144.7, "B7": 153.7}},{"site_id": "gcwdp2bumj8f", "brand": "ASDA", "address": "Cemetery Road, Lidget Green, Bradford", "postcode": "BD7 2QX", "location": {"latitude": 53.791855, "longitude": -1.791265}, "prices": {"E10": 140.7, "B7": 150.7}},{"site_id": "gcwcbsfws475", "brand": "ASDA", "address": "Rooley Lane, Bradford", "postcode": "BD4 7SR", "location": {"latitude": 53.772115, "longitude": -1.728379}, "prices": {"E10": 140.7, "B7": 150.7}},{"site_id": "gcpe5rc0qmz5", "brand": "ASDA", "address": "High Street, Guildford", "postcode": "GU5 0HB", "location": {"latitude": 51.194990, "longitude": -0.558651}, "prices": {"E10": 138.7, "B7": 147.7}},{"site_id": "gcpmpb2fqsby", "brand": "ASDA", "address": "Windsor Road, Maidenhead", "postcode": "SL6 1UZ", "location": {"latitude": 51.505451, "longitude": -0.711932}, "prices": {"E10": 148.7, "B7": 157.7}},{"site_id": "gcmzutnkwpeu", "brand": "ASDA", "address": "Breck Road, Liverpool", "postcode": "L6 5DR", "location": {"latitude": 53.42112, "longitude": -2.95863}, "prices": {"E10": 141.7, "B7": 151.7}},{"site_id": "gcqrzvhrrmdq", "brand": "ASDA", "address": "Lower Bents Ln, Stockport", "postcode": "SK6 2NJ", "location": {"latitude": 53.422295, "longitude": -2.114210}, "prices": {"E10": 147.7, "B7": 155.7}},{"site_id": "gcwnctcpzxsy", "brand": "ASDA", "address": "Bridge Lane, Penrith", "postcode": "CA11 8JB", "location": {"latitude": 54.657508, "longitude": -2.745588}, "prices": {"E10": 148.7, "B7": 156.7}},{"site_id": "gfnkzxjsgyq6", "brand": "ASDA", "address": "Garth dee Road, Bridge of Dee, Aberdeen, Aberdeen", "postcode": "AB10 7QA", "location": {"latitude": 57.124682, "longitude": -2.123557}, "prices": {"E10": 144.7, "B7": 155.7}},{"site_id": "gcq6c6m78jnx", "brand": "ASDA", "address": "Chartwell Business Park, Stourbridge", "postcode": "WV15 6AN", "location": {"latitude": 52.527636, "longitude": -2.398787}, "prices": {"E10": 147.7, "B7": 154.7}},{"site_id": "gcjfgezp637j", "brand": "ASDA", "address": "East Quay, Bridgwater", "postcode": "TA6 5AZ", "location": {"latitude": 51.13025, "longitude": -3.00054}, "prices": {"E10": 140.7, "B7": 149.7}},{"site_id": "gcxgepyw7yy8", "brand": "ASDA", "address": "Scarborough Road, Bridlington", "postcode": "YO16 7NS", "location": {"latitude": 54.095723, "longitude": -0.210716}, "prices": {"E10": 147.7, "B7": 155.7}},{"site_id": "gcq6xf23nj93", "brand": "ASDA", "address": "Pearson Street, Brierley Hill", "postcode": "DY5 3BJ", "location": {"latitude": 52.481396, "longitude": -2.117811}, "prices": {"E10": 144.7, "B7": 153.7}},{"site_id": "gcpcmhjp5294", "brand": "ASDA", "address": "Unit 1 Crowhurst Road, off Carden Avenue, Brighton", "postcode": "BN1 8AS", "location": {"latitude": 50.867535, "longitude": -0.122511}, "prices": {"E10": 147.7, "B7": 157.7}},{"site_id": "gcpcjd5esfex", "brand": "ASDA", "address": "Brighton Marina, Brighton", "postcode": "BN2 5UT", "location": {"latitude": 50.812383, "longitude": -0.104848}, "prices": {"E10": 146.7, "B7": 156.7}},{"site_id": "gcrpbfevbn85", "brand": "ASDA", "address": "Bawtry Road, Rotherham", "postcode": "S60 5DL", "location": {"latitude": 53.408092, "longitude": -1.367121}, "prices": {"E10": 147.7, "B7": 155.7}},{"site_id": "gcnhmx8fntr6", "brand": "ASDA", "address": "Oatlands Avenue, Bristol", "postcode": "BS14 0ST", "location": {"latitude": 51.413641, "longitude": -2.569482}, "prices": {"E10": 143.7, "B7": 152.7}},{"site_id": "gcnhu9b57936", "brand": "ASDA", "address": "Whiteladies Road, Bristol", "postcode": "BS8 2XS", "location": {"latitude": 51.470139, "longitude": -2.614594}, "prices": {"E10": 144.7, "B7": 153.7}},{"site_id": "gcp1dmxhzf0b", "brand": "ASDA", "address": "Grange Road, Southampton", "postcode": "SO30 2FU", "location": {"latitude": 50.916582, "longitude": -1.290345}, "prices": {"E10": 145.7, "B7": 156.7}},{"site_id": "gcpz5vbq37rz", "brand": "ASDA", "address": "Broadwater Crescent, Stevenage", "postcode": "SG2 8EH", "location": {"latitude": 51.888172, "longitude": -0.186681}, "prices": {"E10": 147.7, "B7": 155.7}},{"site_id": "gcwf62mdx842", "brand": "ASDA", "address": "A6120 Broadway, Horsforth", "postcode": "LS18 4DY", "location": {"latitude": 53.834683, "longitude": -1.650485}, "prices": {"E10": 148.7, "B7": 152.7}},{"site_id": "gcmzkmfgt4ns", "brand": "ASDA", "address": "Welton Road - Croft Business Park, Bromborough", "postcode": "CH62 3QP", "location": {"latitude": 53.337862, "longitude": -2.973295}, "prices": {"E10": 142.7, "B7": 150.7}},{"site_id": "gcq5r9qevdm6", "brand": "ASDA", "address": "Ironbridge Road, Broseley", "postcode": "TF12 5DJ", "location": {"latitude": 52.609625, "longitude": -2.473815}, "prices": {"E10": 145.7, "B7": 154.7}},{"site_id": "gcr5f3cm573y", "brand": "ASDA", "address": "32 Shaw Lane, Leicester", "postcode": "LE67 9PU", "location": {"latitude": 52.700889, "longitude": -1.305641}, "prices": {"E10": 157.7, "B7": 161.7}},{"site_id": "gcpr9p4ffkfj", "brand": "ASDA", "address": "Buckingham Ring Road, Buckingham", "postcode": "MK18 1RY", "location": {"latitude": 51.988743, "longitude": -0.987388}, "prices": {"E10": 147.7, "B7": 153.7}},{"site_id": "gcm8dw51gpm2", "brand": "ASDA", "address": "Station Road, Builth Wells", "postcode": "LD2 3SS", "location": {"latitude": 52.152438, "longitude": -3.401506}, "prices": {"E10": 145.7, "B7": 155.7}},{"site_id": "gcpgfuw63mbf", "brand": "ASDA", "address": "Reigate Road, Burgh Heath, Tadworth", "postcode": "KT20 5NZ", "location": {"latitude": 51.30875, "longitude": -0.22253}, "prices": {"E10": 146.7, "B7": 156.7}},{"site_id": "gcw6hcnb81ms", "brand": "ASDA", "address": "Princess Way, Burnley", "postcode": "BB12 0EQ", "location": {"latitude": 53.794649, "longitude": -2.24292}, "prices": {"E10": 142.7, "B7": 151.7}},{"site_id": "u121rkybrev9", "brand": "ASDA", "address": "Ness Road, Cambridge", "postcode": "CB25 0AA", "location": {"latitude": 52.277132, "longitude": 0.328202}, "prices": {"E10": 150.7, "B7": 160.7}},{"site_id": "u123r8pjju87", "brand": "ASDA", "address": "Western Way, Bury St Edmunds", "postcode": "IP33 3SP", "location": {"latitude": 52.25155, "longitude": 0.69199}, "prices": {"E10": 142.7, "B7": 150.7}},{"site_id": "gcybu0xj0q9b", "brand": "ASDA", "address": "Unit 5, Newcastle Shopping Park, Newcastle upon Tyne", "postcode": "NE6 2XP", "location": {"latitude": 54.979225, "longitude": -1.572405}, "prices": {"E10": 143.7, "B7": 152.7}},{"site_id": "gcjtqwym5ysf", "brand": "ASDA", "address": "Pontygwindy Road, Caerphilly", "postcode": "CF83 3SX", "location": {"latitude": 51.585824, "longitude": -3.22123}, "prices": {"E10": 144.7, "B7": 155.7}},{"site_id": "gfjckcfwhmv9", "brand": "ASDA", "address": "61 Forfar Road, Dundee", "postcode": "DD4 9BS", "location": {"latitude": 56.480406, "longitude": -2.951731}, "prices": {"E10": 145.7, "B7": 153.7}},{"site_id": "gcnty0nqqshf", "brand": "ASDA", "address": "A419 Crickla, Swindon", "postcode": "SN6 6JR", "location": {"latitude": 51.635112, "longitude": -1.834222}, "prices": {"E10": 149.7, "B7": 155.7}},{"site_id": "gcn8epp9rm08", "brand": "ASDA", "address": "Culliford Crescent - Canford Heath, Poole", "postcode": "BH17 9DW", "location": {"latitude": 50.75152, "longitude": -1.9666}, "prices": {"E10": 144.7, "B7": 151.7}},{"site_id": "gcqfh9xp9g5b", "brand": "ASDA", "address": "Fletchamstead Highway, Coventry", "postcode": "CV4 7BB", "location": {"latitude": 52.390362, "longitude": -1.545360}, "prices": {"E10": 148.7, "B7": 154.7}},{"site_id": "gcqe9z1wk0rp", "brand": "ASDA", "address": "Avon Road, Cannock", "postcode": "WS11 1LH", "location": {"latitude": 52.68297, "longitude": -2.03563}, "prices": {"E10": 141.7, "B7": 150.7}},{"site_id": "u10gbcnm9qb4", "brand": "ASDA", "address": "Sturry Road, Canterbury", "postcode": "CT1 1DG", "location": {"latitude": 51.290393, "longitude": 1.098257}, "prices": {"E10": 146.7, "B7": 155.7}},{"site_id": "gcjsxx3099sd", "brand": "ASDA", "address": "Ferry Road Retail Park, Cardiff", "postcode": "CF11 0JR", "location": {"latitude": 51.455816, "longitude": -3.183209}, "prices": {"E10": 143.7, "B7": 151.7}},{"site_id": "gcvbkzmgfryv", "brand": "ASDA", "address": "Chandler Way, Carlisle", "postcode": "CA3 0JQ", "location": {"latitude": 54.928207, "longitude": -2.94732}, "prices": {"E10": 142.7, "B7": 151.7}},{"site_id": "gcny7wrs1ckm", "brand": "ASDA", "address": "Black Bourton Road, Carterton", "postcode": "OX18 3HQ", "location": {"latitude": 51.7578, "longitude": -1.592588}, "prices": {"E10": 145.7, "B7": 155.7}},{"site_id": "gcjvkpbkbqm2", "brand": "ASDA", "address": "17-25 Chepstow Road, Newport", "postcode": "NP19 8BW", "location": {"latitude": 51.591305, "longitude": -2.988166}, "prices": {"E10": 145.7, "B7": 154.7}},{"site_id": "gcqptjdfk3ry", "brand": "ASDA", "address": "Wilderspool Causeway, Warrington", "postcode": "WA4 6QE", "location": {"latitude": 53.380599, "longitude": -2.588825}, "prices": {"E10": 145.7, "B7": 153.7}},{"site_id": "gcqg5qggnbq1", "brand": "ASDA", "address": "Watling Street, Tamworth", "postcode": "B78 1SS", "location": {"latitude": 52.596234, "longitude": -1.609000}, "prices": {"E10": 147.7, "B7": 153.7}},{"site_id": "gcybh1mz0wr7", "brand": "ASDA", "address": "Ropery Lane, Chester-le-Street", "postcode": "DH3 3AP", "location": {"latitude": 54.852174, "longitude": -1.574023}, "prices": {"E10": 147.7, "B7": 152.7}},{"site_id": "gcw2x7cf623h", "brand": "ASDA", "address": "Milne Street, Chadderton, Oldham", "postcode": "OL9 0JE", "location": {"latitude": 53.546712, "longitude": -2.138861}, "prices": {"E10": 142.7, "B7": 150.7}},{"site_id": "u10k8fzv2xg3", "brand": "ASDA", "address": "Rochester Road, Gravesend", "postcode": "DA12 4TN", "location": {"latitude": 51.432069, "longitude": 0.395142}, "prices": {"E10": 147.7, "B7": 155.7}},{"site_id": "u10hbt36vf1q", "brand": "ASDA", "address": "Bugsby Way, Charlton, London", "postcode": "SE7 7ST", "location": {"latitude": 51.489284, "longitude": 0.023938}, "prices": {"E10": 143.7, "B7": 150.7}},{"site_id": "gcn8tthhbqde", "brand": "ASDA", "address": "332/334 Charminster Road, Bournemouth", "postcode": "BH8 9QW", "location": {"latitude": 50.741319, "longitude": -1.862023}, "prices": {"E10": 148.7, "B7": 155.7}},{"site_id": "u10k5e4990s8", "brand": "ASDA", "address": "387 Maidstone Road, Chatham", "postcode": "ME5 9SE", "location": {"latitude": 51.34679, "longitude": 0.508844}, "prices": {"E10": 140.7, "B7": 150.7}},{"site_id": "u10q7d0xq2vc", "brand": "ASDA", "address": "Chelmer Village Centre, Chelmsford", "postcode": "CM2 6RE", "location": {"latitude": 51.735868, "longitude": 0.506334}, "prices": {"E10": 143.7, "B7": 152.7}},{"site_id": "gcnrpw3ev103", "brand": "ASDA", "address": "Hatherley Lane, Cheltenham", "postcode": "GL51 6PN", "location": {"latitude": 51.891662, "longitude": -2.128683}, "prices": {"E10": 142.7, "B7": 150.7}},{"site_id": "gcpph52vmjym", "brand": "ASDA", "address": "Northampton Road, Bicester", "postcode": "OX27 7RD", "location": {"latitude": 51.948658, "longitude": -1.201052}, "prices": {"E10": 172.9, "B7": 180.9}},{"site_id": "gcvwnj52htgj", "brand": "ASDA", "address": "3 New Mart Road, Edinburgh", "postcode": "EH14 1RJ", "location": {"latitude": 55.925904, "longitude": -3.247354}, "prices": {"E10": 143.7, "B7": 151.7}},{"site_id": "gcp1cque463p", "brand": "ASDA", "address": "10 Bishopstoke Road, Eastleigh", "postcode": "SO50 6AF", "location": {"latitude": 50.970021, "longitude": -1.345147}, "prices": {"E10": 149.7, "B7": 158.7}},{"site_id": "gcnv0f2tjrq3", "brand": "ASDA", "address": "Marlborough Road, Swindon", "postcode": "SN4 0NR", "location": {"latitude": 51.514699, "longitude": -1.723552}, "prices": {"E10": 148.7, "B7": 155.7}},{"site_id": "gcw15vhc51ms", "brand": "ASDA", "address": "117 Moor Road, Chorley", "postcode": "PR7 2NU", "location": {"latitude": 53.640926, "longitude": -2.641045}, "prices": {"E10": 144.8, "B7": 155.7}},{"site_id": "gcw1hnksjbf9", "brand": "ASDA", "address": "Bolton Street, Chorley", "postcode": "PR7 3DL", "location": {"latitude": 53.648798, "longitude": -2.629841}, "prices": {"E10": 142.7, "B7": 151.7}},{"site_id": "gcn8xk6gjn4f", "brand": "ASDA", "address": "58 Barrack Road, Christchurch", "postcode": "BH23 1PQ", "location": {"latitude": 50.736770, "longitude": -1.786717}, "prices": {"E10": 146.7, "B7": 156.7}},{"site_id": "gcw24g7zthk0", "brand": "ASDA", "address": "Audley Avenue, Stretford", "postcode": "M32 9TR", "location": {"latitude": 53.457202, "longitude": -2.336622}, "prices": {"E10": 147.7, "B7": 154.7}},{"site_id": "u10ydq5qvpzz", "brand": "ASDA", "address": "Bull Hill Road, Clacton-on-Sea", "postcode": "CO15 4AU", "location": {"latitude": 51.802295, "longitude": 1.157747}, "prices": {"E10": 143.7, "B7": 150.7}},{"site_id": "gcw1ef1wbwr4", "brand": "ASDA", "address": "Preston Road, Chorley", "postcode": "PR6 7EJ", "location": {"latitude": 53.713452, "longitude": -2.645292}, "prices": {"E10": 147.7, "B7": 153.7}},{"site_id": "gcvju3m359hp", "brand": "ASDA", "address": "Main Street, Coatbridge", "postcode": "ML5 3BU", "location": {"latitude": 55.861537, "longitude": -4.024617}, "prices": {"E10": 143.7, "B7": 154.7}},{"site_id": "gcmvf43w1r1k", "brand": "ASDA", "address": "High Street, Wrexham", "postcode": "LL11 3UF", "location": {"latitude": 53.055413, "longitude": -3.074378}, "prices": {"E10": 143.7, "B7": 153.7}},{"site_id": "u10x5ehnesgd", "brand": "ASDA", "address": "246 Shrub End Road, Colchester", "postcode": "CO3 4SA", "location": {"latitude": 51.873091, "longitude": 0.862573}, "prices": {"E10": 144.7, "B7": 154.7}},{"site_id": "u10xk2xddxq3", "brand": "ASDA", "address": "Turner Rise, Colchester", "postcode": "CO4 5TU", "location": {"latitude": 51.902629, "longitude": 0.900308}, "prices": {"E10": 143.7, "B7": 153.7}},{"site_id": "gcpvd06dbtke", "brand": "ASDA", "address": "Capitol Way off Edgware Road, Colindale, London", "postcode": "NW9 0AS", "location": {"latitude": 51.593664, "longitude": -0.260208}, "prices": {"E10": 143.7, "B7": 153.7}},{"site_id": "gceny991w6cu", "brand": "ASDA", "address": "Sweep Road, Cookstown", "postcode": "BT80 8JR", "location": {"latitude": 54.63502, "longitude": -6.74608}, "prices": {"E10": 139.7, "B7": 148.7}},{"site_id": "gcpfvszy8srf", "brand": "ASDA", "address": "Copthorne Common, Crawley", "postcode": "RH10 3LF", "location": {"latitude": 51.136309, "longitude": -0.097235}, "prices": {"E10": 148.7, "B7": 152.7}},{"site_id": "gcrd8s862dv8", "brand": "ASDA", "address": "Phoenix Park Way, Corby", "postcode": "NN17 5DT", "location": {"latitude": 52.493857, "longitude": -0.678637}, "prices": {"E10": 143.7, "B7": 152.9}},{"site_id": "gcwfq90gxt8w", "brand": "ASDA", "address": "Wetherby Road, Leeds", "postcode": "LS17 8ND", "location": {"latitude": 53.840221, "longitude": -1.470257}, "prices": {"E10": 147.7, "B7": 153.7}},{"site_id": "gcnkw5315nez", "brand": "ASDA", "address": "101 Pickwick Road, Corsham", "postcode": "SN13 9DA", "location": {"latitude": 51.434059, "longitude": -2.195980}, "prices": {"E10": 144.7, "B7": 155.7}},{"site_id": "gcqfr2kmzxn5", "brand": "ASDA", "address": "Brade Drive, Coventry", "postcode": "CV2 2PN", "location": {"latitude": 52.429065, "longitude": -1.432156}, "prices": {"E10": 143.7, "B7": 153.7}},{"site_id": "gcpfu9s71tf6", "brand": "ASDA", "address": "Balcombe Road, Crawley", "postcode": "RH10 7RU", "location": {"latitude": 51.115887, "longitude": -0.147126}, "prices": {"E10": 140.7, "B7": 151.7}},{"site_id": "gcj2uvr2v9t2", "brand": "ASDA", "address": "Exeter Road, Crediton", "postcode": "EX17 3BN", "location": {"latitude": 50.783987, "longitude": -3.646488}, "prices": {"E10": 144.7, "B7": 150.7}},{"site_id": "gcqq0hyqc1zz", "brand": "ASDA", "address": "Bradfield Road, Crewe", "postcode": "CW1 3RD", "location": {"latitude": 53.113106, "longitude": -2.453330}, "prices": {"E10": 145.7, "B7": 155.7}},{"site_id": "gcjz093cqr93", "brand": "ASDA", "address": "Brecon Road, Powys", "postcode": "NP8 1DE", "location": {"latitude": 51.860148, "longitude": -3.137321}, "prices": {"E10": 147.7, "B7": 155.7}},{"site_id": "gcybfsyfg90k", "brand": "ASDA", "address": "Kenton Ln, Newcastle upon Tyne", "postcode": "NE3 3ED", "location": {"latitude": 55.001574, "longitude": -1.665764}, "prices": {"E10": 146.7, "B7": 154.7}},{"site_id": "gcwddst8qhvv", "brand": "ASDA", "address": "Station Road, Keighley", "postcode": "BD20 7BQ", "location": {"latitude": 53.901741, "longitude": -1.991693}, "prices": {"E10": 145.7, "B7": 154.7}},{"site_id": "gcpvmq336rj1", "brand": "ASDA", "address": "Tottenham Lane, London", "postcode": "N8 8SE", "location": {"latitude": 51.582276, "longitude": -0.119935}, "prices": {"E10": 146.7, "B7": 157.7}},{"site_id": "gcvbjr1kgy4y", "brand": "ASDA", "address": "Currock Road, Carlisle", "postcode": "CA2 4AS", "location": {"latitude": 54.884118, "longitude": -2.930985}, "prices": {"E10": 148.7, "B7": 153.7}},{"site_id": "gcjvfb959f32", "brand": "ASDA", "address": "Henllys Way, Newport", "postcode": "NP44 3JA", "location": {"latitude": 51.644603, "longitude": -3.025254}, "prices": {"E10": 147.7, "B7": 151.7}},{"site_id": "gcpwkvcufqrw", "brand": "ASDA", "address": "Warners End Road, Hemel Hempstead", "postcode": "HP1 3QF", "location": {"latitude": 51.756068, "longitude": -0.491874}, "prices": {"E10": 146.7, "B7": 151.7}},{"site_id": "u10j6cvtj1gw", "brand": "ASDA", "address": "402-410 Becontree Avenue, Dagenham", "postcode": "RM8 2UU", "location": {"latitude": 51.558323, "longitude": 0.128783}, "prices": {"E10": 144.7, "B7": 153.7}},{"site_id": "u10j5hzbxhbp", "brand": "ASDA", "address": "Merrielands Crescent, Dagenham", "postcode": "RM9 6SJ", "location": {"latitude": 51.529501, "longitude": 0.139635}, "prices": {"E10": 143.7, "B7": 153.7}},{"site_id": "gcwym3dth2bz", "brand": "ASDA", "address": "Whinbush Way, Darlington", "postcode": "DL1 3RB", "location": {"latitude": 54.545393, "longitude": -1.523833}, "prices": {"E10": 143.7, "B7": 153.7}},{"site_id": "gcmygd6ygfex", "brand": "ASDA", "address": "Parkway, Deeside", "postcode": "CH5 2NS", "location": {"latitude": 53.232796, "longitude": -3.005242}, "prices": {"E10": 148.7, "B7": 156.7}},{"site_id": "gcptkdtws8k9", "brand": "ASDA", "address": "Oxford Road, Uxbridge", "postcode": "UB9 4DF", "location": {"latitude": 51.569040, "longitude": -0.504656}, "prices": {"E10": 147.7, "B7": 155.7}},{"site_id": "gcqvn72ktxdg", "brand": "ASDA", "address": "27 Duffield Road, Derby", "postcode": "DE1 3BH", "location": {"latitude": 52.928822, "longitude": -1.482576}, "prices": {"E10": 145.7, "B7": 155.7}},{"site_id": "gcqvp9nnxzm6", "brand": "ASDA", "address": "Derby Road, Spondon", "postcode": "DE21 7LW", "location": {"latitude": 52.916821, "longitude": -1.419854}, "prices": {"E10": 144.7, "B7": 154.7}},{"site_id": "gcwc6vdt7j89", "brand": "ASDA", "address": "Mill Street West, Dewsbury", "postcode": "WF12 9AE", "location": {"latitude": 53.68837, "longitude": -1.6334}, "prices": {"E10": 140.7, "B7": 150.7}},{"site_id": "u10gy90fqzv5", "brand": "ASDA", "address": "Montagu Road, Sandwich", "postcode": "CT13 9FA", "location": {"latitude": 51.287204, "longitude": 1.337283}, "prices": {"E10": 146.7, "B7": 152.7}},{"site_id": "gcx0qym0prxc", "brand": "ASDA", "address": "Gliwice Way, Bawtry Road, Doncaster", "postcode": "DN4 5NW", "location": {"latitude": 53.516188, "longitude": -1.102366}, "prices": {"E10": 142.7, "B7": 151.7}},{"site_id": "gcq7be78u09d", "brand": "ASDA", "address": "St Georges Road, Telford", "postcode": "TF2 7RX", "location": {"latitude": 52.708135, "longitude": -2.432238}, "prices": {"E10": 144.7, "B7": 151.7}},{"site_id": "gcnv27c5cyx1", "brand": "ASDA", "address": "Dorcan Way, Swindon", "postcode": "SN3 3RA", "location": {"latitude": 51.568436, "longitude": -1.743716}, "prices": {"E10": 148.7, "B7": 155.7}},{"site_id": "gft8n3nc62nz", "brand": "ASDA", "address": "Dounby, Kirkwall", "postcode": "KW17 2HT", "location": {"latitude": 59.068209, "longitude": -3.231591}, "prices": {"E10": 146.7, "B7": 157.7}},{"site_id": "gcjsdpgtj7zd", "brand": "ASDA", "address": "Cowbridge Bypass, Cowbridge", "postcode": "CF71 7DT", "location": {"latitude": 51.459513, "longitude": -3.422010}, "prices": {"E10": 147.7, "B7": 153.7}},{"site_id": "gcpv63n1mk96", "brand": "ASDA", "address": "Dudden Hill Lane, Willesden", "postcode": "NW10 1DE", "location": {"latitude": 51.553585, "longitude": -0.244226}, "prices": {"E10": 147.7, "B7": 153.7}},{"site_id": "gcq6xcxxq7z0", "brand": "ASDA", "address": "Merryhill Centre, Dudley", "postcode": "DY5 1QL", "location": {"latitude": 52.476011, "longitude": -2.10749}, "prices": {"E10": 143.7, "B7": 153.7}},{"site_id": "gcjg5frwpvsc", "brand": "ASDA", "address": "Dunball Roundabout, Bridgwater", "postcode": "TA6 4TP", "location": {"latitude": 51.165746, "longitude": -2.988648}, "prices": {"E10": 146.7, "B7": 154.7}},{"site_id": "gcynwbs1fj2h", "brand": "ASDA", "address": "Spott Road, Dunbar", "postcode": "EH42 1LE", "location": {"latitude": 55.989404, "longitude": -2.51029}, "prices": {"E10": 144.7, "B7": 154.7}},{"site_id": "gfjck56dbbpm", "brand": "ASDA", "address": "7-9 Derwent Avenue, Dundee", "postcode": "DD3 0SZ", "location": {"latitude": 56.488037, "longitude": -2.979334}, "prices": {"E10": 141.7, "B7": 150.7}},{"site_id": "gfjcm3qcmvgy", "brand": "ASDA", "address": "Milton Of Craigie Road, Dundee", "postcode": "DD4 7RX", "location": {"latitude": 56.474831, "longitude": -2.92537}, "prices": {"E10": 141.7, "B7": 150.7}},{"site_id": "gfjc695ughgn", "brand": "ASDA", "address": "61 Myrekirk Road, Dundee", "postcode": "DD2 4WB", "location": {"latitude": 56.473387, "longitude": -3.050387}, "prices": {"E10": 142.7, "B7": 150.7}},{"site_id": "gcvx43r9xbgx", "brand": "ASDA", "address": "Halbeath Road Retail Park, Fife", "postcode": "KY11 4LP", "location": {"latitude": 56.081348, "longitude": -3.406111}, "prices": {"E10": 143.7, "B7": 153.7}},{"site_id": "gfnmqtb2h86b", "brand": "ASDA", "address": "Riverview Drive, Dyce, Aberdeen", "postcode": "AB21 7NG", "location": {"latitude": 57.204251, "longitude": -2.17216}, "prices": {"E10": 143.7, "B7": 153.7}},{"site_id": "gcrr66xepg07", "brand": "ASDA", "address": "Wharf Road, East Retford", "postcode": "DN22 6EN", "location": {"latitude": 53.320954, "longitude": -0.941507}, "prices": {"E10": 146.7, "B7": 155.7}},{"site_id": "u100zrjr52np", "brand": "ASDA", "address": "The Crumbles - Pevensey Bay Road, Eastbourne", "postcode": "BN23 6JH", "location": {"latitude": 50.796491, "longitude": 0.325961}, "prices": {"E10": 143.7, "B7": 152.7}},{"site_id": "gcw2q069jsyn", "brand": "ASDA", "address": "ASDA Sportcity, Ashton New Road, Manchester", "postcode": "M11 4BD", "location": {"latitude": 53.484036, "longitude": -2.195119}, "prices": {"E10": 142.7, "B7": 152.7}},{"site_id": "gcp1bq7dd7bm", "brand": "ASDA", "address": "Bournemouth Road, Eastleigh", "postcode": "SO53 3YJ", "location": {"latitude": 50.966475, "longitude": -1.389003}, "prices": {"E10": 147.7, "B7": 156.7}},{"site_id": "gcqkrwtrybd2", "brand": "ASDA", "address": "59 Eccleshall Road, Stafford", "postcode": "ST16 2SL", "location": {"latitude": 52.815410, "longitude": -2.123941}, "prices": {"E10": 146.7, "B7": 154.7}},{"site_id": "gcvy1r7gr66e", "brand": "ASDA", "address": "100 The Jewel, Brunstane, Edinburgh", "postcode": "EH15 3AR", "location": {"latitude": 55.938863, "longitude": -3.101527}, "prices": {"E10": 144.7, "B7": 151.7}},{"site_id": "gfjxutmmuyg7", "brand": "ASDA", "address": "Edgar Road, Elgin", "postcode": "IV30 6YQ", "location": {"latitude": 57.640515, "longitude": -3.306699}, "prices": {"E10": 141.7, "B7": 152.7}},{"site_id": "gcr5bcsskn11", "brand": "ASDA", "address": "99 Midland Road, Coalville", "postcode": "LE67 1EH", "location": {"latitude": 52.699431, "longitude": -1.366938}, "prices": {"E10": 149.7, "B7": 156.7}},{"site_id": "gcpvce4gwkjn", "brand": "ASDA", "address": "Allum Lane, Elstree, Borehamwood", "postcode": "WD6 3LS", "location": {"latitude": 51.652845, "longitude": -0.281593}, "prices": {"E10": 144.7, "B7": 152.7}},{"site_id": "gcdt4k6t0278", "brand": "ASDA", "address": "Derrychara Rd, Enniskillen", "postcode": "BT74 6JG", "location": {"latitude": 54.3413, "longitude": -7.63324}, "prices": {"E10": 140.7, "B7": 149.7}},{"site_id": "gcr04nc8hd99", "brand": "ASDA", "address": "Ermont Way, Banbury", "postcode": "OX16 8SZ", "location": {"latitude": 52.068942, "longitude": -1.316265}, "prices": {"E10": 148.7, "B7": 151.7}},{"site_id": "gcqmqvjnvhnt", "brand": "ASDA", "address": "Blurton Road, Stoke-on-trent", "postcode": "ST3 2AQ", "location": {"latitude": 52.982748, "longitude": -2.157216}, "prices": {"E10": 146.7, "B7": 153.7}},{"site_id": "gcq87z4wjexx", "brand": "ASDA", "address": "A46 Evesham Bypass, Evesham", "postcode": "WR11 4TP", "location": {"latitude": 52.113392, "longitude": -1.939462}, "prices": {"E10": 146.7, "B7": 155.7}},{"site_id": "gcrg7f2pgmvh", "brand": "ASDA", "address": "A47 East Bound, Eye", "postcode": "PE6 7SZ", "location": {"latitude": 52.612218, "longitude": -0.187323}, "prices": {"E10": 147.7, "B7": 154.7}},{"site_id": "gbum7e2zuqhb", "brand": "ASDA", "address": "Jennings Road, Penryn", "postcode": "TR10 9LY", "location": {"latitude": 50.160817, "longitude": -5.11841}, "prices": {"E10": 142.7, "B7": 152.7}},{"site_id": "gcp1k6hp9d74", "brand": "ASDA", "address": "165 Highlands Road, Fareham", "postcode": "PO15 5PR", "location": {"latitude": 50.857175, "longitude": -1.213834}, "prices": {"E10": 147.7, "B7": 156.7}},{"site_id": "gcp1jn1dxu53", "brand": "ASDA", "address": "Speedfields Park, Newgate Lane, Fareham", "postcode": "PO14 1TT", "location": {"latitude": 50.833922, "longitude": -1.184805}, "prices": {"E10": 143.7, "B7": 153.7}},{"site_id": "gcqp9xq72y04", "brand": "ASDA", "address": "184-186 Lunts Heath Road, Halton", "postcode": "WA8 5AZ", "location": {"latitude": 53.389993, "longitude": -2.737918}, "prices": {"E10": 146.7, "B7": 152.7}},{"site_id": "gcw29kpemdgy", "brand": "ASDA", "address": "Brackley Street, Farnworth, Bolton", "postcode": "BL4 9DT", "location": {"latitude": 53.547937, "longitude": -2.395465}, "prices": {"E10": 143.7, "B7": 153.7}},{"site_id": "gcqmrpkm70wc", "brand": "ASDA", "address": "King Street, Stoke-on-trent", "postcode": "ST4 2LT", "location": {"latitude": 52.997762, "longitude": -2.157717}, "prices": {"E10": 146.7, "B7": 153.7}},{"site_id": "gcpmpkdcfxcx", "brand": "ASDA", "address": "Gringer Hill, Marlow Road, Maidenhead", "postcode": "SL6 7LZ", "location": {"latitude": 51.531368, "longitude": -0.734440}, "prices": {"E10": 148.7, "B7": 156.7}},{"site_id": "gcp9je7msdzy", "brand": "ASDA", "address": "Littlehampton Road, Ferring", "postcode": "BN12 6PN", "location": {"latitude": 50.819594, "longitude": -0.456759}, "prices": {"E10": 143.7, "B7": 151.7}},{"site_id": "gcxcbs16qsjb", "brand": "ASDA", "address": "Stoneferry Retail Park, Stoneferry Road, Hull", "postcode": "HU7 0BA", "location": {"latitude": 53.767129, "longitude": -0.328734}, "prices": {"E10": 146.7, "B7": 154.7}},{"site_id": "gcr9c0t37pct", "brand": "ASDA", "address": "Burton Road, Wellingborough", "postcode": "NN9 5HX", "location": {"latitude": 52.341870, "longitude": -0.651838}, "prices": {"E10": 150.7, "B7": 160.7}},{"site_id": "gctferv627rr", "brand": "ASDA", "address": "Cop Lane, Fleetwood", "postcode": "FY7 6NU", "location": {"latitude": 53.91993, "longitude": -3.01401}, "prices": {"E10": 146.7, "B7": 156.7}},{"site_id": "gcjy57w8xw24", "brand": "ASDA", "address": "A4042 Roundabout, Pontypool", "postcode": "NP4 0XB", "location": {"latitude": 51.692755, "longitude": -3.021046}, "prices": {"E10": 144.7, "B7": 154.7}},{"site_id": "gcwys2vdehyq", "brand": "ASDA", "address": "Newton Park, Coatham Mundeville", "postcode": "DL1 3NL", "location": {"latitude": 54.584778, "longitude": -1.563354}, "prices": {"E10": 146.7, "B7": 156.7}},{"site_id": "gfjfnr90517j", "brand": "ASDA", "address": "Unit 1, New Road, Forfar", "postcode": "DD8 2AE", "location": {"latitude": 56.642264, "longitude": -2.886824}, "prices": {"E10": 143.7, "B7": 155.7}},{"site_id": "gfq81wrkh9m6", "brand": "ASDA", "address": "Watermill Road, Fraserburgh", "postcode": "AB43 7ED", "location": {"latitude": 57.692464, "longitude": -2.023735}, "prices": {"E10": 145.7, "B7": 155.7}},{"site_id": "gcn77t6v1kzf", "brand": "ASDA", "address": "Warminster Road, Frome", "postcode": "BA11 5LA", "location": {"latitude": 51.227391, "longitude": -2.3044}, "prices": {"E10": 149.7, "B7": 160.7}},{"site_id": "gcvj8vnw5kxg", "brand": "ASDA", "address": "2101 London Rd, Glasgow", "postcode": "G32 8XQ", "location": {"latitude": 55.839046, "longitude": -4.176703}, "prices": {"E10": 148.7, "B7": 156.7}},{"site_id": "gcw44bkm1c2s", "brand": "ASDA", "address": "East Way - Fulwood, Preston", "postcode": "PR2 9NP", "location": {"latitude": 53.791151, "longitude": -2.68316}, "prices": {"E10": 139.7, "B7": 148.7}},{"site_id": "gcyh2hv6bnx9", "brand": "ASDA", "address": "Currie Road, Galashiels", "postcode": "TD1 2AG", "location": {"latitude": 55.61742, "longitude": -2.80528}, "prices": {"E10": 142.7, "B7": 152.7}},{"site_id": "gcvjdrye7gnx", "brand": "ASDA", "address": "61 Edinburgh Road, Glasgow", "postcode": "G69 6DD", "location": {"latitude": 55.853706, "longitude": -4.110594}, "prices": {"E10": 147.7, "B7": 157.7}},{"site_id": "gcyb9v4m5ju9", "brand": "ASDA", "address": "Metro Centre, Gibside Way, Gateshead", "postcode": "NE11 9YA", "location": {"latitude": 54.959921, "longitude": -1.677779}, "prices": {"E10": 143.7, "B7": 152.7}},{"site_id": "gcq7rwhkh4y7", "brand": "ASDA", "address": "Stafford Rd, Wolverhampton", "postcode": "WV10 7ER", "location": {"latitude": 52.636519, "longitude": -2.125695}, "prices": {"E10": 147.7, "B7": 154.7}},{"site_id": "u10km17zjgf4", "brand": "ASDA", "address": "Cornwallis Roundabout, Gillingham", "postcode": "ME8 6PS", "location": {"latitude": 51.380159, "longitude": 0.576688}, "prices": {"E10": 144.7, "B7": 154.7}},{"site_id": "u10kks4rxz42", "brand": "ASDA", "address": "Pier Road, Gillingham", "postcode": "ME7 1RZ", "location": {"latitude": 51.395368, "longitude": 0.552742}, "prices": {"E10": 142.7, "B7": 152.7}},{"site_id": "gcvj8rvvhsze", "brand": "ASDA", "address": "1300 Duke Street, Glasgow", "postcode": "G31 4EB", "location": {"latitude": 55.854003, "longitude": -4.201596}, "prices": {"E10": 144.7, "B7": 153.7}},{"site_id": "gcx194rm3sdf", "brand": "ASDA", "address": "Leeds Road, Glasshoughton, Castleford", "postcode": "WF10 5EL", "location": {"latitude": 53.714952, "longitude": -1.352809}, "prices": {"E10": 140.7, "B7": 149.7}},{"site_id": "gcp7sycbhvmu", "brand": "ASDA", "address": "42 Reading Road South, Fleet", "postcode": "GU51 3QP", "location": {"latitude": 51.277242, "longitude": -0.843084}, "prices": {"E10": 148.7, "B7": 153.7}},{"site_id": "gcvz8nbgkmcx", "brand": "ASDA", "address": "Fullerton Road, Glenrothes", "postcode": "KY7 5QB", "location": {"latitude": 56.19924, "longitude": -3.17138}, "prices": {"E10": 143.7, "B7": 153.7}},{"site_id": "gcnrj17qqq21", "brand": "ASDA", "address": "Bruton Way, Gloucester", "postcode": "GL1 1DS", "location": {"latitude": 51.862606, "longitude": -2.235281}, "prices": {"E10": 141.7, "B7": 149.7}},{"site_id": "gcw0hxz7bzsy", "brand": "ASDA", "address": "Edge Green Lane, Warrington", "postcode": "WA3 3SP", "location": {"latitude": 53.47965, "longitude": -2.602795}, "prices": {"E10": 143.7, "B7": 152.7}},{"site_id": "gcwc9tn5d0bd", "brand": "ASDA", "address": "Oxford Road, Cleckheaton", "postcode": "BD19 4PY", "location": {"latitude": 53.729243, "longitude": -1.683568}, "prices": {"E10": 142.7, "B7": 151.7}},{"site_id": "gcpt475bndsn", "brand": "ASDA", "address": "93 Stoke Poges Lane, Slough", "postcode": "SL1 3NJ", "location": {"latitude": 51.520467, "longitude": -0.598974}, "prices": {"E10": 147.7, "B7": 156.7}},{"site_id": "gcyc4gpcpxj5", "brand": "ASDA", "address": "Rotary Way, Newcastle Upon Tyne", "postcode": "NE3 5EH", "location": {"latitude": 55.036220, "longitude": -1.625991}, "prices": {"E10": 146.7, "B7": 155.7}},{"site_id": "gcybgnu7mc9t", "brand": "ASDA", "address": "Hollywood Avenue, Newcastle upon Tyne", "postcode": "NE3 5BU", "location": {"latitude": 55.013194, "longitude": -1.619794}, "prices": {"E10": 144.7, "B7": 153.7}},{"site_id": "gcuvtxshq35s", "brand": "ASDA", "address": "500 Helen Street, Glasgow", "postcode": "G51 3HR", "location": {"latitude": 55.852668, "longitude": -4.322557}, "prices": {"E10": 143.7, "B7": 153.9}},{"site_id": "gcvqeq5hcn31", "brand": "ASDA", "address": "Dock Road, Grangemouth", "postcode": "FK3 8TY", "location": {"latitude": 56.02016, "longitude": -3.71782}, "prices": {"E10": 143.7, "B7": 151.7}},{"site_id": "gcrt128vuzvx", "brand": "ASDA", "address": "Union Street, Grantham", "postcode": "NG31 6NZ", "location": {"latitude": 52.913372, "longitude": -0.64508}, "prices": {"E10": 144.7, "B7": 154.7}},{"site_id": "u10k8kcrhhys", "brand": "ASDA", "address": "Thames Way, Gravesend", "postcode": "DA11 0DQ", "location": {"latitude": 51.443095, "longitude": 0.361967}, "prices": {"E10": 144.7, "B7": 153.7}},{"site_id": "gcqdcfg6862x", "brand": "ASDA", "address": "Brickhouse Lane, Tipton", "postcode": "DY4 7HW", "location": {"latitude": 52.530902, "longitude": -2.026537}, "prices": {"E10": 141.7, "B7": 150.7}},{"site_id": "gcqrxpurh5mz", "brand": "ASDA", "address": "172-6 Buxton Road, Stockport", "postcode": "SK2 6HA", "location": {"latitude": 53.393301, "longitude": -2.147202}, "prices": {"E10": 147.7, "B7": 155.7}},{"site_id": "u135r1tmusxm", "brand": "ASDA", "address": "Acle New Road, Runham Vauxhall, Great Yarmouth", "postcode": "NR30 1SF", "location": {"latitude": 52.611791, "longitude": 1.72128}, "prices": {"E10": 143.7, "B7": 151.7}},{"site_id": "gcnfjumnmwe9", "brand": "ASDA", "address": "Great Bridge Road, Romsey", "postcode": "SO51 0HB", "location": {"latitude": 50.997984, "longitude": -1.498877}, "prices": {"E10": 147.7, "B7": 156.7}},{"site_id": "gcw2ejxxbh46", "brand": "ASDA", "address": "New Road, Radcliffe", "postcode": "M26 1LS", "location": {"latitude": 53.556553, "longitude": -2.316138}, "prices": {"E10": 145.7, "B7": 153.7}},{"site_id": "u10hwqfb5qfz", "brand": "ASDA", "address": "Crossways Boulevard, Greenhithe", "postcode": "DA9 9BT", "location": {"latitude": 51.453132, "longitude": 0.278578}, "prices": {"E10": 143.7, "B7": 152.7}},{"site_id": "gcmzeqkd9m6s", "brand": "ASDA", "address": "6 New Chester Road, Birkenhead", "postcode": "CH41 9AZ", "location": {"latitude": 53.384390, "longitude": -3.015014}, "prices": {"E10": 146.7, "B7": 152.7}},{"site_id": "gcxbwpxs1hg5", "brand": "ASDA", "address": "Holles Street, Grimsby", "postcode": "DN32 9DL", "location": {"latitude": 53.567302, "longitude": -0.077544}, "prices": {"E10": 144.7, "B7": 152.7}},{"site_id": "gcqryctqkecf", "brand": "ASDA", "address": "Wellington New Road, Stockport", "postcode": "SK1 3UA", "location": {"latitude": 53.402844, "longitude": -2.156887}, "prices": {"E10": 147.7, "B7": 156.7}},{"site_id": "gbuzrun7euzg", "brand": "ASDA", "address": "Pearce's Garage, Gunnislake", "postcode": "PL18 9EE", "location": {"latitude": 50.515763, "longitude": -4.220981}, "prices": {"E10": 144.7, "B7": 152.7}},{"site_id": "gcq6h75932he", "brand": "ASDA", "address": "Franche Road, Kidderminster", "postcode": "DY11 5BL", "location": {"latitude": 52.399906, "longitude": -2.270076}, "prices": {"E10": 147.7, "B7": 152.7}},{"site_id": "gcyn242cfu45", "brand": "ASDA", "address": "Haddington Retail Park, Haddington", "postcode": "EH41 3FW", "location": {"latitude": 55.954686, "longitude": -2.813832}, "prices": {"E10": 147.7, "B7": 156.7}},{"site_id": "gcw9tdtq93sz", "brand": "ASDA", "address": "Skircoat Road, Halifax", "postcode": "HX1 2JN", "location": {"latitude": 53.718026, "longitude": -1.859939}, "prices": {"E10": 148.7, "B7": 155.7}},{"site_id": "gcw9th344j0y", "brand": "ASDA", "address": "Thrum Hall Lane, Halifax", "postcode": "HX1 4PG", "location": {"latitude": 53.72312, "longitude": -1.88621}, "prices": {"E10": 143.7, "B7": 153.7}},{"site_id": "gcpw7qjdh0ys", "brand": "ASDA", "address": "London Road, Berkhamsted", "postcode": "HP4 2NB", "location": {"latitude": 51.756938, "longitude": -0.552593}, "prices": {"E10": 142.7, "B7": 150.7}},{"site_id": "gcm9265z20w4", "brand": "ASDA", "address": "Doldowlod, Llandrindod Wells", "postcode": "LD1 6NN", "location": {"latitude": 52.260250, "longitude": -3.497935}, "prices": {"E10": 147.7, "B7": 156.7}},{"site_id": "gcvjk5yudhyg", "brand": "ASDA", "address": "M74 Northbound, Hamilton", "postcode": "ML3 6JW", "location": {"latitude": 55.787908, "longitude": -4.036307}, "prices": {"E10": 170.9, "B7": 179.9}},{"site_id": "gcmyw3c7h0px", "brand": "ASDA", "address": "Queen's Park Road, Chester", "postcode": "CH4 7JF", "location": {"latitude": 53.183957, "longitude": -2.887505}, "prices": {"E10": 148.7, "B7": 158.7}},{"site_id": "gcqd7tf0strm", "brand": "ASDA", "address": "261-263 High Street, Birmingham", "postcode": "B17 9QG", "location": {"latitude": 52.458458, "longitude": -1.952616}, "prices": {"E10": 143.7, "B7": 154.7}},{"site_id": "gcq5cdembtf8", "brand": "ASDA", "address": "Harlescott Ln, Shrewsbury", "postcode": "SY1 3AP", "location": {"latitude": 52.738458, "longitude": -2.730624}, "prices": {"E10": 148.7, "B7": 153.7}},{"site_id": "gcw2mtw4v991", "brand": "ASDA", "address": "Harpurhey Shopping Centre, Manchester", "postcode": "M9 4DJ", "location": {"latitude": 53.510646, "longitude": -2.212639}, "prices": {"E10": 142.7, "B7": 152.7}},{"site_id": "gcwgjjfkpjhb", "brand": "ASDA", "address": "Bower Road, Harrogate", "postcode": "HG1 5DE", "location": {"latitude": 53.997143, "longitude": -1.534689}, "prices": {"E10": 145.7, "B7": 152.7}},{"site_id": "gcq3tt0pr9f9", "brand": "ASDA", "address": "Crown Lane, Waresley", "postcode": "DY11 7XP", "location": {"latitude": 52.323471, "longitude": -2.232881}, "prices": {"E10": 147.7, "B7": 154.7}},{"site_id": "gcxph7ytxww5", "brand": "ASDA", "address": "Marina Way, Hartlepool", "postcode": "TS24 0XR", "location": {"latitude": 54.689553, "longitude": -1.210183}, "prices": {"E10": 143.7, "B7": 151.7}},{"site_id": "u10zkyxp80wp", "brand": "ASDA", "address": "Main Road, Harwich", "postcode": "CO12 3HJ", "location": {"latitude": 51.936411, "longitude": 1.273049}, "prices": {"E10": 146.7, "B7": 155.7}},{"site_id": "gcrpzu4w21b6", "brand": "ASDA", "address": "Scrooby Road, Harworth", "postcode": "DN11 8AB", "location": {"latitude": 53.41661, "longitude": -1.06224}, "prices": {"E10": 145.7, "B7": 153.7}},{"site_id": "gcp6xk1pwb22", "brand": "ASDA", "address": "Hindhead Road, Haslemere", "postcode": "GU27 1LE", "location": {"latitude": 51.087923, "longitude": -0.732811}, "prices": {"E10": 148.7, "B7": 153.7}},{"site_id": "gcpy6z1uk9hb", "brand": "ASDA", "address": "98 Town Centre, Hatfield", "postcode": "AL10 0JP", "location": {"latitude": 51.763155, "longitude": -0.227615}, "prices": {"E10": 145.7, "B7": 153.7}},{"site_id": "gcrh7chm41q3", "brand": "ASDA", "address": "Derby Road, Loughborough", "postcode": "LE12 5LD", "location": {"latitude": 52.798230, "longitude": -1.261166}, "prices": {"E10": 147.7, "B7": 155.7}},{"site_id": "gcp32gjrtws3", "brand": "ASDA", "address": "Larchwood Avenue, Bedhampton, Havant", "postcode": "PO9 3QW", "location": {"latitude": 50.864032, "longitude": -1.008058}, "prices": {"E10": 142.7, "B7": 152.7}},{"site_id": "gcw05qk697k0", "brand": "ASDA", "address": "A580 East Lancashire Road, Haydock", "postcode": "WA11 9TL", "location": {"latitude": 53.472279, "longitude": -2.663782}, "prices": {"E10": 143.7, "B7": 152.7}},{"site_id": "gcpsyr8dmurx", "brand": "ASDA", "address": "Millington Road, Hayes", "postcode": "UB3 4AZ", "location": {"latitude": 51.50157, "longitude": -0.427523}, "prices": {"E10": 142.7, "B7": 150.7}},{"site_id": "gcp31eusr1ut", "brand": "ASDA", "address": "181 Havant Road, Hayling Island", "postcode": "PO11 0LG", "location": {"latitude": 50.822189, "longitude": -0.982028}, "prices": {"E10": 146.7, "B7": 155.7}},{"site_id": "gcqx8h2eq6q0", "brand": "ASDA", "address": "Buxton Road, Stockport", "postcode": "SK7 6AF", "location": {"latitude": 53.373467, "longitude": -2.1089}, "prices": {"E10": 148.7, "B7": 154.7}},{"site_id": "gcpmzg43fy21", "brand": "ASDA", "address": "Amersham Road, High Wycombe", "postcode": "HP15 7HN", "location": {"latitude": 51.651953, "longitude": -0.712485}, "prices": {"E10": 147.7, "B7": 155.7}},{"site_id": "gcvmgf8w23h1", "brand": "ASDA", "address": "Heartlands Business Park, Junction 4A M8, Bathgate", "postcode": "EH47 0HT", "location": {"latitude": 55.868671, "longitude": -3.703127}, "prices": {"E10": 153.9, "B7": 159.9}},{"site_id": "gcrn9s8rf52y", "brand": "ASDA", "address": "Mansfield Road, Heath", "postcode": "S44 5SF", "location": {"latitude": 53.200963, "longitude": -1.340835}, "prices": {"E10": 148.7, "B7": 154.7}},{"site_id": "gcpsyn344h58", "brand": "ASDA", "address": "Shepiston Lane, Hayes", "postcode": "UB3 1LL", "location": {"latitude": 51.496033, "longitude": -0.446121}, "prices": {"E10": 148.7, "B7": 153.7}},{"site_id": "gcpsubr28zgm", "brand": "ASDA", "address": "Southern Perimeter Road, Hounslow", "postcode": "TW6 3PF", "location": {"latitude": 51.461221, "longitude": -0.481763}, "prices": {"E10": 147.7, "B7": 153.7}},{"site_id": "gcpwtbut6km9", "brand": "ASDA", "address": "Redbourn Road, Hemel Hempstead", "postcode": "HP2 7BA", "location": {"latitude": 51.772622, "longitude": -0.444155}, "prices": {"E10": 144.7, "B7": 153.7}},{"site_id": "gcq04n9u37v6", "brand": "ASDA", "address": "Holmer Road, Hereford", "postcode": "HR4 9RX", "location": {"latitude": 52.067688, "longitude": -2.722474}, "prices": {"E10": 141.6, "B7": 152.7}},{"site_id": "gcq0453snztq", "brand": "ASDA", "address": "Belmont Road, Hereford", "postcode": "HR2 7JE", "location": {"latitude": 52.04896, "longitude": -2.72019}, "prices": {"E10": 139.7, "B7": 149.7}},{"site_id": "gcx9xy64rwej", "brand": "ASDA", "address": "181 Hessle Road, Hull", "postcode": "HU3 4AA", "location": {"latitude": 53.735926, "longitude": -0.359476}, "prices": {"E10": 146.7, "B7": 152.7}},{"site_id": "gcx9xmzu77vt", "brand": "ASDA", "address": "Hessle Road, Hull", "postcode": "HU3 4PE", "location": {"latitude": 53.733501, "longitude": -0.373527}, "prices": {"E10": 143.7, "B7": 150.7}},{"site_id": "gcpszt1twvw4", "brand": "ASDA", "address": "Heston Road, Hounslow", "postcode": "TW5 0RG", "location": {"latitude": 51.488320, "longitude": -0.371483}, "prices": {"E10": 147.7, "B7": 152.7}},{"site_id": "gcy8b2sdrwd8", "brand": "ASDA", "address": "Off Rotary Way, Hexham", "postcode": "NE46 4DL", "location": {"latitude": 54.978932, "longitude": -2.091985}, "prices": {"E10": 149.7, "B7": 154.7}},{"site_id": "gcw2vdpyn7hh", "brand": "ASDA", "address": "Middleton Road, Heywood", "postcode": "OL10 2LU", "location": {"latitude": 53.581356, "longitude": -2.208254}, "prices": {"E10": 143.7, "B7": 151.7}},{"site_id": "gcpmw78m5vx3", "brand": "ASDA", "address": "Holmers Farm Way, High Wycombe", "postcode": "HP12 4NU", "location": {"latitude": 51.611911, "longitude": -0.779515}, "prices": {"E10": 144.7, "B7": 153.7}},{"site_id": "gcjgkkeqkf9d", "brand": "ASDA", "address": "Caxton Road, Highbridge", "postcode": "TA9 3BX", "location": {"latitude": 51.222112, "longitude": -2.972745}, "prices": {"E10": 145.7, "B7": 155.7}},{"site_id": "gcw9s6k506yg", "brand": "ASDA", "address": "Burnley Road, Sowerby Bridge", "postcode": "HX6 2TL", "location": {"latitude": 53.713922, "longitude": -1.916262}, "prices": {"E10": 147.7, "B7": 155.7}},{"site_id": "gcptjudvq7y9", "brand": "ASDA", "address": "Uxbridge Road, Uxbridge", "postcode": "UB10 0NZ", "location": {"latitude": 51.529547, "longitude": -0.446385}, "prices": {"E10": 144.7, "B7": 154.7}},{"site_id": "gcr4bywxqc3w", "brand": "ASDA", "address": "Barwell Lane, Hinckley", "postcode": "LE10 1SS", "location": {"latitude": 52.551667, "longitude": -1.3628}, "prices": {"E10": 142.7, "B7": 152.7}},{"site_id": "gcqdr7kdqqrx", "brand": "ASDA", "address": "Hobs Moat Road, Birmingham", "postcode": "B92 8JN", "location": {"latitude": 52.445191, "longitude": -1.784930}, "prices": {"E10": 147.7, "B7": 154.7}},{"site_id": "gcp7rmrkzhvv", "brand": "ASDA", "address": "A31 Hogs Back, Farnham", "postcode": "GU10 1EU", "location": {"latitude": 51.225963, "longitude": -0.725808}, "prices": {"E10": 148.7, "B7": 152.7}},{"site_id": "gcqmtn3t0jf1", "brand": "ASDA", "address": "Talke Road, Stoke-on-trent", "postcode": "ST5 7PJ", "location": {"latitude": 53.032726, "longitude": -2.239373}, "prices": {"E10": 148.7, "B7": 153.7}},{"site_id": "gcw6jr9fs083", "brand": "ASDA", "address": "Manchester Road, Nelson", "postcode": "BB9 7SH", "location": {"latitude": 53.830802, "longitude": -2.227984}, "prices": {"E10": 147.7, "B7": 154.7}},{"site_id": "gcqq9vhc2r87", "brand": "ASDA", "address": "Middlewich Road, Crewe", "postcode": "CW4 7ES", "location": {"latitude": 53.201359, "longitude": -2.373320}, "prices": {"E10": 151.7, "B7": 159.7}},{"site_id": "gcptd2wb3usu", "brand": "ASDA", "address": "Oxford Road, Beaconsfield", "postcode": "HP9 1UB", "location": {"latitude": 51.599807, "longitude": -0.668324}, "prices": {"E10": 146.7, "B7": 155.7}},{"site_id": "gcw8zr1zfs6m", "brand": "ASDA", "address": "Huddersfield Road, Holmfirth", "postcode": "HD9 6LT", "location": {"latitude": 53.605822, "longitude": -1.788767}, "prices": {"E10": 143.7, "B7": 151.7}},{"site_id": "u134zhmszms7", "brand": "ASDA", "address": "Lowestoft Road, Great Yarmouth", "postcode": "NR31 9AH", "location": {"latitude": 52.538017, "longitude": 1.721876}, "prices": {"E10": 145.7, "B7": 153.7}},{"site_id": "gcpg5fzejgut", "brand": "ASDA", "address": "Brighton Road, Horley", "postcode": "RH6 7ER", "location": {"latitude": 51.167997, "longitude": -0.176188}, "prices": {"E10": 146.7, "B7": 156.7}},{"site_id": "u10jkgx2d8bb", "brand": "ASDA", "address": "Billet Lane, Hornchurch", "postcode": "RM11 1XA", "location": {"latitude": 51.567714, "longitude": 0.219314}, "prices": {"E10": 145.7, "B7": 156.7}},{"site_id": "gcpf01zw315z", "brand": "ASDA", "address": "Worthing Road, Horsham", "postcode": "RH13 8LW", "location": {"latitude": 50.991506, "longitude": -0.341236}, "prices": {"E10": 143.7, "B7": 153.7}},{"site_id": "gcw9rd9zvx35", "brand": "ASDA", "address": "Longhill Road - Off Bradford Road, Huddersfield", "postcode": "HD2 2LQ", "location": {"latitude": 53.672433, "longitude": -1.77595}, "prices": {"E10": 142.7, "B7": 150.7}},{"site_id": "gcxcc89ryqzs", "brand": "ASDA", "address": "Littlefair Road, Hull", "postcode": "HU9 5LP", "location": {"latitude": 53.748885, "longitude": -0.285371}, "prices": {"E10": 149.7, "B7": 156.7}},{"site_id": "gcxcfmcb5tqv", "brand": "ASDA", "address": "Main Road - Bilton, Hull", "postcode": "HU11 4AL", "location": {"latitude": 53.776732, "longitude": -0.250123}, "prices": {"E10": 146.7, "B7": 153.7}},{"site_id": "gcw2hukcer48", "brand": "ASDA", "address": "100 Princess Road, Manchester", "postcode": "M15 5AS", "location": {"latitude": 53.461141, "longitude": -2.245531}, "prices": {"E10": 144.7, "B7": 151.7}},{"site_id": "gfnnb39ddgk3", "brand": "ASDA", "address": "Steven Road, Huntly", "postcode": "AB54 8SX", "location": {"latitude": 57.44521, "longitude": -2.79933}, "prices": {"E10": 142.7, "B7": 151.7}},{"site_id": "gcmzwc33hkdd", "brand": "ASDA", "address": "Hunts Cross Shopping Centre, Liverpool", "postcode": "L24 9WA", "location": {"latitude": 53.356672, "longitude": -2.865529}, "prices": {"E10": 142.7, "B7": 152.7}},{"site_id": "gcmzz7w4h45s", "brand": "ASDA", "address": "Huyton Lane, Liverpool", "postcode": "L36 7TX", "location": {"latitude": 53.412557, "longitude": -2.836817}, "prices": {"E10": 140.7, "B7": 149.7}},{"site_id": "gcrjm6k72705", "brand": "ASDA", "address": "Radford Rd - Hyson Green, Nottingham", "postcode": "NG7 5FP", "location": {"latitude": 52.965843, "longitude": -1.169101}, "prices": {"E10": 142.7, "B7": 151.7}},{"site_id": "gcpzdzqrqg87", "brand": "ASDA", "address": "Norton Way North, Letchworth", "postcode": "SG6 1BS", "location": {"latitude": 51.984462, "longitude": -0.221839}, "prices": {"E10": 148.7, "B7": 153.7}},{"site_id": "gcrj69233btk", "brand": "ASDA", "address": "Nottingham Road, Ilkeston", "postcode": "DE7 5BN", "location": {"latitude": 52.961186, "longitude": -1.295961}, "prices": {"E10": 141.7, "B7": 151.7}},{"site_id": "gcwhpc1dp75v", "brand": "ASDA", "address": "New Road, Carnforth", "postcode": "LA6 3DL", "location": {"latitude": 54.146236, "longitude": -2.469325}, "prices": {"E10": 149.7, "B7": 159.7}},{"site_id": "gfjnb42rvh2h", "brand": "ASDA", "address": "Ivanhoe Avenue, Inverness, Inverness", "postcode": "IV2 6BZ", "location": {"latitude": 57.450970, "longitude": -4.215638}, "prices": {"E10": 144.7, "B7": 150.7}},{"site_id": "gcpuzwnzzntc", "brand": "ASDA", "address": "151 East Ferry Road, Isle of Dogs, London", "postcode": "E14 3BT", "location": {"latitude": 51.494393, "longitude": -0.01185}, "prices": {"E10": 142.7, "B7": 150.7}},{"site_id": "gcque1przppb", "brand": "ASDA", "address": "Derby Road, Burton", "postcode": "DE13 0DF", "location": {"latitude": 52.822464, "longitude": -1.623772}, "prices": {"E10": 147.7, "B7": 156.7}},{"site_id": "gcwdkwx2h14r", "brand": "ASDA", "address": "Bingley Street, Keighley", "postcode": "BD21 3ER", "location": {"latitude": 53.86872, "longitude": -1.90149}, "prices": {"E10": 142.7, "B7": 150.7}},{"site_id": "gcwhcybcun7t", "brand": "ASDA", "address": "Burton Road, Kendal", "postcode": "LA9 7JA", "location": {"latitude": 54.310126, "longitude": -2.73546}, "prices": {"E10": 143.7, "B7": 152.7}},{"site_id": "gcr6pmhw4t2f", "brand": "ASDA", "address": "Rockingham Road, Kettering", "postcode": "NN14 1UD", "location": {"latitude": 52.424188, "longitude": -0.727971}, "prices": {"E10": 145.7, "B7": 151.7}},{"site_id": "gcr6pkcmq83h", "brand": "ASDA", "address": "Cunliffe Drive, Northfield Avenue, Kettering", "postcode": "NN16 9HU", "location": {"latitude": 52.409475, "longitude": -0.734174}, "prices": {"E10": 139.7, "B7": 148.7}},{"site_id": "gcvp7dkr1zg4", "brand": "ASDA", "address": "Cruive Dykes, Stirling", "postcode": "FK8 1AF", "location": {"latitude": 56.133405, "longitude": -3.966328}, "prices": {"E10": 146.7, "B7": 154.7}},{"site_id": "gcwfn7hu6muk", "brand": "ASDA", "address": "Killingbeck Drive, Leeds", "postcode": "LS14 6UF", "location": {"latitude": 53.806328, "longitude": -1.474538}, "prices": {"E10": 144.7, "B7": 151.7}},{"site_id": "gcuu3cdb1d8j", "brand": "ASDA", "address": "10 Queens Drive, Kilmarnock", "postcode": "KA1 3XF", "location": {"latitude": 55.602247, "longitude": -4.487555}, "prices": {"E10": 140.7, "B7": 150.7}},{"site_id": "gcrr6dhm731z", "brand": "ASDA", "address": "40 London Road, Retford", "postcode": "DN22 6AZ", "location": {"latitude": 53.317705, "longitude": -0.938749}, "prices": {"E10": 148.7, "B7": 157.7}},{"site_id": "gbvq418zqdtq", "brand": "ASDA", "address": "Ilbert Road, Kingsbridge", "postcode": "TQ7 1EB", "location": {"latitude": 50.282936, "longitude": -3.777980}, "prices": {"E10": 149.7, "B7": 160.7}},{"site_id": "gcnx9191cngd", "brand": "ASDA", "address": "Cheltenham Road, Cheltenham", "postcode": "GL52 4SA", "location": {"latitude": 51.941989, "longitude": -2.064713}, "prices": {"E10": 144.7, "B7": 152.7}},{"site_id": "gcxf01h0xcx6", "brand": "ASDA", "address": "Bude Road, Kingswood Retail Park, Hull", "postcode": "HU7 3DA", "location": {"latitude": 53.793364, "longitude": -0.34509}, "prices": {"E10": 143.7, "B7": 152.7}},{"site_id": "gcmrpcmwq7mq", "brand": "ASDA", "address": "55 Expressway, Bodelwyddan", "postcode": "LL18 5XE", "location": {"latitude": 53.269804, "longitude": -3.518836}, "prices": {"E10": 157.9, "B7": 165.9}},{"site_id": "gcmrpcmdnrtw", "brand": "ASDA", "address": "A55 Westbound, Bodelwyddan", "postcode": "LL18 5XW", "location": {"latitude": 53.268308, "longitude": -3.519115}, "prices": {"E10": 157.9, "B7": 166.9}},{"site_id": "gcrj3bfkdkef", "brand": "ASDA", "address": "Ladywood Road, Ilkeston", "postcode": "DE7 4NF", "location": {"latitude": 52.959018, "longitude": -1.326153}, "prices": {"E10": 143.7, "B7": 153.7}},{"site_id": "gcx54rnecpyr", "brand": "ASDA", "address": "York Road, York", "postcode": "YO26 8EQ", "location": {"latitude": 54.004099, "longitude": -1.299296}, "prices": {"E10": 143.7, "B7": 153.7}},{"site_id": "gcvxrcdnz23q", "brand": "ASDA", "address": "Hendry Road, Fife", "postcode": "KY2 5DS", "location": {"latitude": 56.127559, "longitude": -3.171892}, "prices": {"E10": 148.7, "B7": 158.7}},{"site_id": "gcvz27j95nyz", "brand": "ASDA", "address": "Carberry Road, Kirkcaldy", "postcode": "KY1 3NU", "location": {"latitude": 56.135276, "longitude": -3.14415}, "prices": {"E10": 145.7, "B7": 155.7}},{"site_id": "gcw2s48n7cqc", "brand": "ASDA", "address": "71-73 Bury Old Road, Whitefield", "postcode": "M45 6TB", "location": {"latitude": 53.540241, "longitude": -2.284986}, "prices": {"E10": 147.7, "B7": 153.7}},{"site_id": "gcwgq8fbkvsy", "brand": "ASDA", "address": "18 Boroughbridge Road, Knaresborough", "postcode": "HG5 0NG", "location": {"latitude": 54.012982, "longitude": -1.468181}, "prices": {"E10": 148.7, "B7": 156.7}},{"site_id": "gcqr4ju8ewf2", "brand": "ASDA", "address": "Toft Road, Knutsford", "postcode": "WA16 8QJ", "location": {"latitude": 53.293458, "longitude": -2.366515}, "prices": {"E10": 149.7, "B7": 153.7}},{"site_id": "gcmzemw2233v", "brand": "ASDA", "address": "117 New Chester Road, Birkenhead", "postcode": "CH41 9BW", "location": {"latitude": 53.379958, "longitude": -3.012760}, "prices": {"E10": 146.7, "B7": 152.7}},{"site_id": "gctgx8tktj4m", "brand": "ASDA", "address": "Ovangle Road, Lancaster", "postcode": "LA1 5JR", "location": {"latitude": 54.056358, "longitude": -2.821952}, "prices": {"E10": 146.7, "B7": 154.7}},{"site_id": "gcrj9sp3jnvp", "brand": "ASDA", "address": "Wesley Street, Langley Mill", "postcode": "NG16 4ED", "location": {"latitude": 53.020256, "longitude": -1.330020}, "prices": {"E10": 142.7, "B7": 151.7}},{"site_id": "gcvjj6ncqbd1", "brand": "ASDA", "address": "Broomhill Drive, Larkhall", "postcode": "ML9 1QP", "location": {"latitude": 55.735278, "longitude": -3.974133}, "prices": {"E10": 144.7, "B7": 152.7}},{"site_id": "gchbh9m1sw9s", "brand": "ASDA", "address": "Wobern Garage, Launceston", "postcode": "PL15 7AU", "location": {"latitude": 50.632130, "longitude": -4.365617}, "prices": {"E10": 143.7, "B7": 153.7}},{"site_id": "gcwf7f8hu9jf", "brand": "ASDA", "address": "Otley Road, Leeds", "postcode": "LS16 8AA", "location": {"latitude": 53.848897, "longitude": -1.592408}, "prices": {"E10": 148.7, "B7": 152.7}},{"site_id": "gcqckz9jsnpd", "brand": "ASDA", "address": "130 Rugby Road, Leamington Spa, Warwickshire", "postcode": "CV32 6DN", "location": {"latitude": 52.293152, "longitude": -1.547517}, "prices": {"E10": 143.7, "B7": 151.7}},{"site_id": "gcqcms84yu1u", "brand": "ASDA", "address": "Chesterton Drive, Leamington Spa", "postcode": "CV31 1YD", "location": {"latitude": 52.27619, "longitude": -1.515821}, "prices": {"E10": 143.7, "B7": 151.7}},{"site_id": "gcqe694vrcdh", "brand": "ASDA", "address": "570 Bloxwich Road, Walsall", "postcode": "WS3 2BB", "location": {"latitude": 52.608909, "longitude": -1.995437}, "prices": {"E10": 144.7, "B7": 152.7}},{"site_id": "gcjsyfpugnng", "brand": "ASDA", "address": "Capital Retail Park-Leckwith Road, Cardiff", "postcode": "CF11 8AZ", "location": {"latitude": 51.47199, "longitude": -3.2072}, "prices": {"E10": 142.7, "B7": 151.7}},{"site_id": "gcr5w15dhjgc", "brand": "ASDA", "address": "1 Exploration Drive, Leicester", "postcode": "LE4 5NU", "location": {"latitude": 52.65246, "longitude": -1.135026}, "prices": {"E10": 144.7, "B7": 152.7}},{"site_id": "gcr5j6ntnjjx", "brand": "ASDA", "address": "77 Lutterworth Road, Blaby", "postcode": "LE8 4DX", "location": {"latitude": 52.570559, "longitude": -1.166133}, "prices": {"E10": 144.7, "B7": 153.7}},{"site_id": "gcr5jpqpnvus", "brand": "ASDA", "address": "Narborough Road South, Braunstone", "postcode": "LE3 2LL", "location": {"latitude": 52.598168, "longitude": -1.176075}, "prices": {"E10": 144.7, "B7": 152.7}},{"site_id": "gcw0qs19d3hz", "brand": "ASDA", "address": "Atherleigh Way, Leigh", "postcode": "WN7 5RZ", "location": {"latitude": 53.502485, "longitude": -2.526221}, "prices": {"E10": 141.7, "B7": 153.7}},{"site_id": "gcvwrrjdmfxf", "brand": "ASDA", "address": "2 Sandpiper Drive, Edinburgh", "postcode": "EH6 6NX", "location": {"latitude": 55.981235, "longitude": -3.189211}, "prices": {"E10": 144.7, "B7": 152.7}},{"site_id": "gcpvrc3nvsw5", "brand": "ASDA", "address": "Marshall Road, Leyton", "postcode": "E10 5NH", "location": {"latitude": 51.555896, "longitude": -0.009331}, "prices": {"E10": 143.7, "B7": 150.7}},{"site_id": "gctqxsd48wg4", "brand": "ASDA", "address": "Lillyhall Service Station, Toll Bar, Workingston", "postcode": "CA14 4PJ", "location": {"latitude": 54.603903, "longitude": -3.534184}, "prices": {"E10": 147.7, "B7": 157.7}},{"site_id": "gcrwdd9z58h3", "brand": "ASDA", "address": "Newark Road, North Hykeham, Lincoln", "postcode": "LN6 8JY", "location": {"latitude": 53.187871, "longitude": -0.591536}, "prices": {"E10": 143.7, "B7": 150.7}},{"site_id": "gcrwem559ch4", "brand": "ASDA", "address": "246 Newark Road, Lincoln", "postcode": "LN6 8RP", "location": {"latitude": 53.201902, "longitude": -0.555941}, "prices": {"E10": 147.7, "B7": 152.7}},{"site_id": "gcuvdmcsgvek", "brand": "ASDA", "address": "Phoenix Retail Park, Paisley", "postcode": "PA1 2AB", "location": {"latitude": 55.842691, "longitude": -4.46615}, "prices": {"E10": 144.7, "B7": 152.7}},{"site_id": "gcmzftenc3qk", "brand": "ASDA", "address": "Sea View Road, Wallasey", "postcode": "CH45 4NZ", "location": {"latitude": 53.419956, "longitude": -3.045901}, "prices": {"E10": 142.7, "B7": 153.7}},{"site_id": "gcw9zwwusucu", "brand": "ASDA", "address": "Canterbury Avenue, Little Horton, Bradford", "postcode": "BD5 0PX", "location": {"latitude": 53.781191, "longitude": -1.769808}, "prices": {"E10": 140.7, "B7": 149.7}},{"site_id": "gcwc99g23zwt", "brand": "ASDA", "address": "Bradford Road, Liversedge", "postcode": "WF15 6JE", "location": {"latitude": 53.711240, "longitude": -1.688409}, "prices": {"E10": 142.6, "B7": 151.7}},{"site_id": "gcvtbj1w8ebu", "brand": "ASDA", "address": "Almondvale, Livingston", "postcode": "EH54 6NA", "location": {"latitude": 55.883236, "longitude": -3.510747}, "prices": {"E10": 148.7, "B7": 156.7}},{"site_id": "gcmr2fr6sgny", "brand": "ASDA", "address": "Conway Road, Llandudno", "postcode": "LL30 1PJ", "location": {"latitude": 53.31847, "longitude": -3.824059}, "prices": {"E10": 144.7, "B7": 154.7}},{"site_id": "gcjn12j56n9s", "brand": "ASDA", "address": "Murray Street, Llanelli", "postcode": "SA15 1BX", "location": {"latitude": 51.680281, "longitude": -4.156864}, "prices": {"E10": 140.7, "B7": 151.7}},{"site_id": "gckyvzjw0x0m", "brand": "ASDA", "address": "Ffordd Cae Sel, Llangefni", "postcode": "LL77 7DW", "location": {"latitude": 53.257239, "longitude": -4.309660}, "prices": {"E10": 141.7, "B7": 150.7}},{"site_id": "gcjsyr35yye5", "brand": "ASDA", "address": "Llantrisant Road, Cardiff", "postcode": "CF5 2PW", "location": {"latitude": 51.499149, "longitude": -3.234903}, "prices": {"E10": 144.6, "B7": 153.7}},{"site_id": "gcjuj3z38vs2", "brand": "ASDA", "address": "Locking Moor Road, Weston-Super-Mare", "postcode": "BS24 8EL", "location": {"latitude": 51.338025, "longitude": -2.923355}, "prices": {"E10": 146.7, "B7": 156.7}},{"site_id": "gcp16tvbuzty", "brand": "ASDA", "address": "Ridge Road, Southampton", "postcode": "SO31 7ZE", "location": {"latitude": 50.872203, "longitude": -1.271305}, "prices": {"E10": 148.7, "B7": 156.7}},{"site_id": "gcuy24wtu0pv", "brand": "ASDA", "address": "Lomondgate Drive, West Dunbartonshire", "postcode": "G82 3BN", "location": {"latitude": 55.957160, "longitude": -4.561552}, "prices": {"E10": 148.7, "B7": 154.7}},{"site_id": "gcw297revwt8", "brand": "ASDA", "address": "Long Causeway, Bolton", "postcode": "BL4 9BW", "location": {"latitude": 53.543922, "longitude": -2.395323}, "prices": {"E10": 146.7, "B7": 155.7}},{"site_id": "gcrhgn6yp1yj", "brand": "ASDA", "address": "Midland Street, Long Eaton", "postcode": "NG10 1NY", "location": {"latitude": 52.899966, "longitude": -1.268493}, "prices": {"E10": 142.7, "B7": 151.7}},{"site_id": "gcndpgxrk44b", "brand": "ASDA", "address": "Salisbury Road, Salisbury", "postcode": "SP5 3HZ", "location": {"latitude": 50.994592, "longitude": -1.758763}, "prices": {"E10": 147.7, "B7": 155.7}},{"site_id": "gcnhxjvcxv6f", "brand": "ASDA", "address": "Craven Way, Bristol", "postcode": "BS30 7DY", "location": {"latitude": 51.447890, "longitude": -2.496633}, "prices": {"E10": 144.7, "B7": 153.7}},{"site_id": "gcpkdc8c3cgj", "brand": "ASDA", "address": "Chalfont Way, Lower Earley, Reading", "postcode": "RG6 5TT", "location": {"latitude": 51.424567, "longitude": -0.932739}, "prices": {"E10": 142.7, "B7": 152.7}},{"site_id": "u134x85vnx6d", "brand": "ASDA", "address": "Belvedere Road-Off Horn Hill, Lowestoft", "postcode": "NR33 0PX", "location": {"latitude": 52.4723, "longitude": 1.7461}, "prices": {"E10": 144.7, "B7": 154.7}},{"site_id": "gcwcm450bjvd", "brand": "ASDA", "address": "323 Horbury Road, Wakefield", "postcode": "WF2 8JN", "location": {"latitude": 53.668357, "longitude": -1.533988}, "prices": {"E10": 143.7, "B7": 153.7}},{"site_id": "gcnbudwmztgt", "brand": "ASDA", "address": "Ampress Park, Lymington", "postcode": "SO41 8XN", "location": {"latitude": 50.771587, "longitude": -1.551148}, "prices": {"E10": 151.7, "B7": 161.7}},{"site_id": "gcpz732eez23", "brand": "ASDA", "address": "Lytton Way, Stevenage", "postcode": "SG1 1BT", "location": {"latitude": 51.907756, "longitude": -0.209563}, "prices": {"E10": 145.7, "B7": 155.7}},{"site_id": "gcqqzx6mtzdy", "brand": "ASDA", "address": "Churchill Way, Macclesfield", "postcode": "SK11 9JR", "location": {"latitude": 53.260156, "longitude": -2.128345}, "prices": {"E10": 147.7, "B7": 156.7}},{"site_id": "gcqvjg25165p", "brand": "ASDA", "address": "A38 Mackworth Island, Derby", "postcode": "DE22 4AA", "location": {"latitude": 52.928872, "longitude": -1.505176}, "prices": {"E10": 148.7, "B7": 154.7}},{"site_id": "gcpmpgxnz5z1", "brand": "ASDA", "address": "143 Bridge Road, Maidenhead", "postcode": "SL6 8NH", "location": {"latitude": 51.524258, "longitude": -0.704156}, "prices": {"E10": 145.7, "B7": 155.7}},{"site_id": "gcpe15ym7uy1", "brand": "ASDA", "address": "Milford, Godalming", "postcode": "GU8 5EL", "location": {"latitude": 51.173707, "longitude": -0.650451}, "prices": {"E10": 147.7, "B7": 154.7}},{"site_id": "gcrnmkv4tvtj", "brand": "ASDA", "address": "Old Mill Lane, Mansfield", "postcode": "NG19 0HA", "location": {"latitude": 53.156435, "longitude": -1.168417}, "prices": {"E10": 141.7, "B7": 150.7}},{"site_id": "gcrjqmm9y6x8", "brand": "ASDA", "address": "705 Woodborough Road, Nottingham", "postcode": "NG3 5QG", "location": {"latitude": 52.983215, "longitude": -1.123784}, "prices": {"E10": 143.7, "B7": 153.7}},{"site_id": "gcrncstj60ep", "brand": "ASDA", "address": "M1 29A, Markham Ln, Long Duckmanton", "postcode": "S44 5HB", "location": {"latitude": 53.243394, "longitude": -1.333482}, "prices": {"E10": 172.9, "B7": 182.9}},{"site_id": "gcnhpmnt70n3", "brand": "ASDA", "address": "Westway Garages, Bath", "postcode": "BA2 9HN", "location": {"latitude": 51.356492, "longitude": -2.484832}, "prices": {"E10": 148.7, "B7": 156.7}},{"site_id": "gbvmc68ykq1v", "brand": "ASDA", "address": "Salcombe Road Garage, Kingsbridge", "postcode": "TQ7 3BU", "location": {"latitude": 50.244249, "longitude": -3.811085}, "prices": {"E10": 147.7, "B7": 158.7}},{"site_id": "gcrjq2ep2vz2", "brand": "ASDA", "address": "Carlton Road, Nottingham", "postcode": "NG3 2NJ", "location": {"latitude": 52.960844, "longitude": -1.122516}, "prices": {"E10": 146.7, "B7": 153.7}},{"site_id": "gcqxbbm1srxm", "brand": "ASDA", "address": "151 Stockport Road, Stockport", "postcode": "SK6 6DQ", "location": {"latitude": 53.395170, "longitude": -2.069386}, "prices": {"E10": 145.7, "B7": 154.7}},{"site_id": "gcnz9pycjp1v", "brand": "ASDA", "address": "Stow Road, Moreton-in-Marsh", "postcode": "GL56 0DS", "location": {"latitude": 51.984658, "longitude": -1.705136}, "prices": {"E10": 146.7, "B7": 156.7}},{"site_id": "gcptpt1xrhkj", "brand": "ASDA", "address": "Ruislip Road, Greenford", "postcode": "UB6 9RP", "location": {"latitude": 51.532440, "longitude": -0.371340}, "prices": {"E10": 148.7, "B7": 154.7}},{"site_id": "gcqdq732ds3r", "brand": "ASDA", "address": "Fox Hollies Road, Birmingham", "postcode": "B27 7US", "location": {"latitude": 52.444720, "longitude": -1.832890}, "prices": {"E10": 146.7, "B7": 154.7}},{"site_id": "gcjw7zyu1tsc", "brand": "ASDA", "address": "Dowlais Top, Merthyr Tydfil", "postcode": "CF48 2YF", "location": {"latitude": 51.765326, "longitude": -3.336215}, "prices": {"E10": 145.7, "B7": 156.7}},{"site_id": "gcp55xs107mz", "brand": "ASDA", "address": "Cocksford Down, Popham", "postcode": "SO21 3BD", "location": {"latitude": 51.194727, "longitude": -1.228776}, "prices": {"E10": 151.9, "B7": 159.9}},{"site_id": "gfnmrertvxyw", "brand": "ASDA", "address": "Jesmond Drive, Bridge Of Don, Aberdeen", "postcode": "AB22 8WQ", "location": {"latitude": 57.191734, "longitude": -2.120803}, "prices": {"E10": 143.7, "B7": 154.7}},{"site_id": "gcwcv0tudyfy", "brand": "ASDA", "address": "Holme Well Road, Leeds", "postcode": "LS10 4TQ", "location": {"latitude": 53.749053, "longitude": -1.530404}, "prices": {"E10": 140.7, "B7": 150.7}},{"site_id": "gcqe08fmbzfe", "brand": "ASDA", "address": "40301 Millfields Road, Wolverhampton", "postcode": "WV14 0QJ", "location": {"latitude": 52.563742, "longitude": -2.084276}, "prices": {"E10": 147.7, "B7": 152.7}},{"site_id": "gcw8bnf5rcm8", "brand": "ASDA", "address": "Newhay Road, Rochdale", "postcode": "OL16 4JD", "location": {"latitude": 53.607113, "longitude": -2.106824}, "prices": {"E10": 146.7, "B7": 152.7}},{"site_id": "gcw9nkk8pjj6", "brand": "ASDA", "address": "819 Manchester Road, Huddersfield", "postcode": "HD4 5SX", "location": {"latitude": 53.636654, "longitude": -1.828229}, "prices": {"E10": 142.7, "B7": 151.7}},{"site_id": "gcprz7m8expy", "brand": "ASDA", "address": "Bletcham Way, Milton Keynes", "postcode": "MK1 1QB", "location": {"latitude": 52.005282, "longitude": -0.72837}, "prices": {"E10": 144.7, "B7": 153.7}},{"site_id": "u10ujfxzftxr", "brand": "ASDA", "address": "Tothill Street, Ramsgate", "postcode": "CT12 4AU", "location": {"latitude": 51.343219, "longitude": 1.318133}, "prices": {"E10": 142.7, "B7": 150.7}},{"site_id": "gcqdz7pnnj2t", "brand": "ASDA", "address": "Walmley Ash Road, Sutton Coldfield", "postcode": "B76 1XL", "location": {"latitude": 52.532751, "longitude": -1.780460}, "prices": {"E10": 142.7, "B7": 152.7}},{"site_id": "gcnn81ne804n", "brand": "ASDA", "address": "A40 North Bound, Monmouth", "postcode": "NP25 4BG", "location": {"latitude": 51.772411, "longitude": -2.813183}, "prices": {"E10": 154.9, "B7": 162.9}},{"site_id": "gcjyxcp15zxx", "brand": "ASDA", "address": "A40 South Bound, Monmouth", "postcode": "NP25 4BR", "location": {"latitude": 51.772301, "longitude": -2.813305}, "prices": {"E10": 154.9, "B7": 162.9}},{"site_id": "gfn4xyjnmsm4", "brand": "ASDA", "address": "108-24 North Esk Road, Montrose", "postcode": "DD10 9AY", "location": {"latitude": 56.723531, "longitude": -2.464932}, "prices": {"E10": 147.7, "B7": 152.7}},{"site_id": "gcqmy34u7mnf", "brand": "ASDA", "address": "Moorland Road, Stoke-on-trent", "postcode": "ST6 1JP", "location": {"latitude": 53.048445, "longitude": -2.178701}, "prices": {"E10": 147.7, "B7": 152.7}},{"site_id": "gcmzc32unt2z", "brand": "ASDA", "address": "157 Hoylake Road, Wirral", "postcode": "CH46 9PZ", "location": {"latitude": 53.401137, "longitude": -3.107820}, "prices": {"E10": 147.7, "B7": 155.7}},{"site_id": "gcwceqk3zk77", "brand": "ASDA", "address": "Howley Park Road, Morley", "postcode": "LS27 0BP", "location": {"latitude": 53.735828, "longitude": -1.608838}, "prices": {"E10": 140.7, "B7": 150.7}},{"site_id": "gcvbhrqyzvy3", "brand": "ASDA", "address": "200 Wigton Road, Carlisle", "postcode": "CA2 6JS", "location": {"latitude": 54.884730, "longitude": -2.967507}, "prices": {"E10": 147.7, "B7": 151.7}},{"site_id": "gcw9dv9w0csq", "brand": "ASDA", "address": "Burnley Road, Hebden Bridge", "postcode": "HX7 5DE", "location": {"latitude": 53.732423, "longitude": -1.986427}, "prices": {"E10": 145.7, "B7": 155.7}},{"site_id": "gcjqm4wf64vh", "brand": "ASDA", "address": "Chain Road, Neath", "postcode": "SA11 5AZ", "location": {"latitude": 51.736923, "longitude": -3.639836}, "prices": {"E10": 148.7, "B7": 155.7}},{"site_id": "u12e99g0pjz4", "brand": "ASDA", "address": "2 Rudge Way, Swaffham", "postcode": "PE37 8DQ", "location": {"latitude": 52.656128, "longitude": 0.773472}, "prices": {"E10": 147.7, "B7": 156.7}},{"site_id": "gcr3m8rsmk3h", "brand": "ASDA", "address": "A45 East Bound Nene Valley Way, Northampton", "postcode": "NN3 5LU", "location": {"latitude": 52.255457, "longitude": -0.791979}, "prices": {"E10": 145.7, "B7": 155.7}},{"site_id": "gcr3m8rsmk3h", "brand": "ASDA", "address": "A45 Westbound, Nene Valley Way, Northampton", "postcode": "NN3 5LU", "location": {"latitude": 52.254462, "longitude": -0.794222}, "prices": {"E10": 145.7, "B7": 155.7}},{"site_id": "gcrj9u50wzyk", "brand": "ASDA", "address": "Langley Mill, Nottingham", "postcode": "NG16 4AA", "location": {"latitude": 53.020164, "longitude": -1.324975}, "prices": {"E10": 147.7, "B7": 153.7}},{"site_id": "gcx5n625x4vx", "brand": "ASDA", "address": "Great North Way, York", "postcode": "YO26 6RB", "location": {"latitude": 53.977820, "longitude": -1.131284}, "prices": {"E10": 144.7, "B7": 152.7}},{"site_id": "gcndrx6th0tr", "brand": "ASDA", "address": "Southampton Road, Salisbury", "postcode": "SP1 2LL", "location": {"latitude": 51.063511, "longitude": -1.782358}, "prices": {"E10": 146.7, "B7": 155.7}},{"site_id": "gcz00bgke3dv", "brand": "ASDA", "address": "Stockton Road, Seaham", "postcode": "SR7 8ER", "location": {"latitude": 54.831930, "longitude": -1.366165}, "prices": {"E10": 146.7, "B7": 154.7}},{"site_id": "gcrmvtbj7b5h", "brand": "ASDA", "address": "Lombard Street, Newark", "postcode": "NG24 1XG", "location": {"latitude": 53.07426, "longitude": -0.813771}, "prices": {"E10": 144.7, "B7": 154.7}},{"site_id": "gcvjrfcshtc4", "brand": "ASDA", "address": "2 Morningside Road, Newmains", "postcode": "ML2 9AS", "location": {"latitude": 55.77135, "longitude": -3.85961}, "prices": {"E10": 143.7, "B7": 152.7}},{"site_id": "gcjv6z64x2dt", "brand": "ASDA", "address": "Highcross Road, Rogerstone", "postcode": "NP10 9AE", "location": {"latitude": 51.586749, "longitude": -3.037748}, "prices": {"E10": 145.7, "B7": 154.7}},{"site_id": "gcp06sr7vbpb", "brand": "ASDA", "address": "St Georges Way, Newport", "postcode": "PO30 2QH", "location": {"latitude": 50.692935, "longitude": -1.286173}, "prices": {"E10": 143.7, "B7": 153.7}},{"site_id": "gbvrsryvcb81", "brand": "ASDA", "address": "Newton Road, Newton Abbot", "postcode": "TQ13 9DX", "location": {"latitude": 50.580763, "longitude": -3.671697}, "prices": {"E10": 140.7, "B7": 147.7}},{"site_id": "gcw08h6sdhmn", "brand": "ASDA", "address": "Railway Road, Skelmersdale", "postcode": "WN8 8TL", "location": {"latitude": 53.550514, "longitude": -2.809145}, "prices": {"E10": 146.7, "B7": 154.7}},{"site_id": "gceyw41jstg5", "brand": "ASDA", "address": "Ards Shopping Centre - Circular Road, Newtownards", "postcode": "BT23 4EU", "location": {"latitude": 54.59204, "longitude": -5.71132}, "prices": {"E10": 139.7, "B7": 147.7}},{"site_id": "gcpz9cun3653", "brand": "ASDA", "address": "Nightingale Road, Hitchin", "postcode": "SG5 1RQ", "location": {"latitude": 51.954053, "longitude": -0.269171}, "prices": {"E10": 148.7, "B7": 155.7}},{"site_id": "gcwvpnbg6ksd", "brand": "ASDA", "address": "Darlington Road, Northallerton", "postcode": "DL6 2PH", "location": {"latitude": 54.346792, "longitude": -1.441772}, "prices": {"E10": 143.7, "B7": 152.7}},{"site_id": "gcqek60j851m", "brand": "ASDA", "address": "Northgate, Birmingham", "postcode": "WS9 8TH", "location": {"latitude": 52.614382, "longitude": -1.922074}, "prices": {"E10": 146.7, "B7": 155.7}},{"site_id": "gcptpr58cuv4", "brand": "ASDA", "address": "256 Church Road, Northolt", "postcode": "UB5 5AW", "location": {"latitude": 51.542513, "longitude": -0.379633}, "prices": {"E10": 143.7, "B7": 152.7}},{"site_id": "u12gm2f242nb", "brand": "ASDA", "address": "Hall Road, Norwich", "postcode": "NR4 6DP", "location": {"latitude": 52.606659, "longitude": 1.288596}, "prices": {"E10": 143.7, "B7": 153.7}},{"site_id": "u12gs9ppj79f", "brand": "ASDA", "address": "Drayton High Road, Hellesdon", "postcode": "NR6 5DT", "location": {"latitude": 52.654088, "longitude": 1.263376}, "prices": {"E10": 144.7, "B7": 152.7}},{"site_id": "gcrjn4dz7y94", "brand": "ASDA", "address": "Loughborough Road, Nottingham", "postcode": "NG2 7JA", "location": {"latitude": 52.925169, "longitude": -1.138639}, "prices": {"E10": 142.7, "B7": 150.7}},{"site_id": "gcqfy9ym7v8s", "brand": "ASDA", "address": "Newtown Road, Nuneaton", "postcode": "CV11 4FL", "location": {"latitude": 52.525387, "longitude": -1.463364}, "prices": {"E10": 143.7, "B7": 152.7}},{"site_id": "gcn73bvnk77k", "brand": "ASDA", "address": "Nunney Catch, Frome", "postcode": "BA11 4NZ", "location": {"latitude": 51.201162, "longitude": -2.376751}, "prices": {"E10": 152.7, "B7": 162.7}},{"site_id": "gctwgm8wwn1z", "brand": "ASDA", "address": "Lamplugh Road, Cockermouth", "postcode": "CA13 0QT", "location": {"latitude": 54.654320, "longitude": -3.372497}, "prices": {"E10": 150.7, "B7": 156.7}},{"site_id": "gcpvdkrccs1n", "brand": "ASDA", "address": "520-522 Watford Way, Greater London", "postcode": "NW7 2PT", "location": {"latitude": 51.615595, "longitude": -0.242160}, "prices": {"E10": 148.7, "B7": 154.7}},{"site_id": "gcmr5tphcb9q", "brand": "ASDA", "address": "Colwyn Service Station, Abergale Road, Colwyn Bay", "postcode": "LL29 9YG", "location": {"latitude": 53.290003, "longitude": -3.703688}, "prices": {"E10": 149.7, "B7": 158.7}},{"site_id": "gcpuykmnqk3b", "brand": "ASDA", "address": "464 - 504 Old Kent Road, London", "postcode": "SE1 5AG", "location": {"latitude": 51.484397, "longitude": -0.069791}, "prices": {"E10": 141.7, "B7": 150.7}},{"site_id": "gcqdd59f012j", "brand": "ASDA", "address": "Wolverhampton Road, Oldbury", "postcode": "B69 4PU", "location": {"latitude": 52.492799, "longitude": -2.01746}, "prices": {"E10": 143.7, "B7": 150.7}},{"site_id": "gcdy9dgsrd7p", "brand": "ASDA", "address": "31 Dromore Road, Omagh", "postcode": "BT78 1QZ", "location": {"latitude": 54.59587, "longitude": -7.31181}, "prices": {"E10": 140.7, "B7": 149.7}},{"site_id": "gctbwpm66n3j", "brand": "ASDA", "address": "201 County Road, Ormskirk", "postcode": "L39 3LU", "location": {"latitude": 53.565649, "longitude": -2.893200}, "prices": {"E10": 143.7, "B7": 151.7}},{"site_id": "gcmudvpt2fnv", "brand": "ASDA", "address": "Shrewsbury Road, Oswestry", "postcode": "SY11 4JA", "location": {"latitude": 52.849393, "longitude": -3.028237}, "prices": {"E10": 149.7, "B7": 154.7}},{"site_id": "gcphzkj7phv7", "brand": "ASDA", "address": "329 Reading Road, Reading", "postcode": "RG8 7JE", "location": {"latitude": 51.482491, "longitude": -1.080091}, "prices": {"E10": 146.7, "B7": 154.7}},{"site_id": "gcqmxb8rzt3b", "brand": "ASDA", "address": "Dividy Road, Stoke-on-trent", "postcode": "ST3 5YY", "location": {"latitude": 53.001086, "longitude": -2.119843}, "prices": {"E10": 146.7, "B7": 153.7}},{"site_id": "gcpv1u77ppgr", "brand": "ASDA", "address": "2-20 Western Road, Park Royal, London", "postcode": "NW10 7LW", "location": {"latitude": 51.52781, "longitude": -0.26989}, "prices": {"E10": 143.7, "B7": 153.7}},{"site_id": "gcmytvuxwr8n", "brand": "ASDA", "address": "Parkgate Road, Chester", "postcode": "CH1 4BE", "location": {"latitude": 53.204365, "longitude": -2.902128}, "prices": {"E10": 147.7, "B7": 155.7}},{"site_id": "gcx8b7tp4u1n", "brand": "ASDA", "address": "Doncaster Road, Scunthorpe", "postcode": "DN15 7DR", "location": {"latitude": 53.589786, "longitude": -0.685152}, "prices": {"E10": 147.7, "B7": 155.7}},{"site_id": "gcw29epgeeuv", "brand": "ASDA", "address": "190 Bolton Road, Bolton", "postcode": "BL4 9BU", "location": {"latitude": 53.542216, "longitude": -2.383349}, "prices": {"E10": 146.7, "B7": 155.7}},{"site_id": "gcqzxu99c8q3", "brand": "ASDA", "address": "340 Prince of Wales Road, Sheffield", "postcode": "S9 4EL", "location": {"latitude": 53.374470, "longitude": -1.415286}, "prices": {"E10": 147.7, "B7": 154.7}},{"site_id": "gcnjhuugeu8y", "brand": "ASDA", "address": "Highwood Lane, Bristol", "postcode": "BS34 5TL", "location": {"latitude": 51.530692, "longitude": -2.59649}, "prices": {"E10": 143.7, "B7": 151.7}},{"site_id": "gcw0e1fdv0dz", "brand": "ASDA", "address": "Ormskirk Road, Wigan", "postcode": "WN5 8BE", "location": {"latitude": 53.535355, "longitude": -2.677642}, "prices": {"E10": 147.7, "B7": 152.7}},{"site_id": "gchqpdf5ktcy", "brand": "ASDA", "address": "Gordon Street, Pembroke Dock", "postcode": "SA72 6DA", "location": {"latitude": 51.694402, "longitude": -4.94109}, "prices": {"E10": 140.7, "B7": 150.7}},{"site_id": "gcq7zucnpxwk", "brand": "ASDA", "address": "Wolverhampton Road, Stafford", "postcode": "ST19 5NS", "location": {"latitude": 52.717336, "longitude": -2.118524}, "prices": {"E10": 150.7, "B7": 160.7}},{"site_id": "gcjv0vdh6dwz", "brand": "ASDA", "address": "8 Dering Road, Pontprennau, Cardiff", "postcode": "CF23 8NL", "location": {"latitude": 51.536202, "longitude": -3.13046}, "prices": {"E10": 143.7, "B7": 152.7}},{"site_id": "gbuj1fyucymq", "brand": "ASDA", "address": "Western Promenade Road, Penzance", "postcode": "TR18 4NP", "location": {"latitude": 50.111802, "longitude": -5.543206}, "prices": {"E10": 144.7, "B7": 153.7}},{"site_id": "gfj8csk45kv4", "brand": "ASDA", "address": "89 Dunkeld Road, Perth", "postcode": "PH1 5AP", "location": {"latitude": 56.408018, "longitude": -3.444069}, "prices": {"E10": 143.7, "B7": 152.7}},{"site_id": "gfnxnbvrxz2q", "brand": "ASDA", "address": "Buchan Way, Peterhead", "postcode": "AB42 3JL", "location": {"latitude": 57.485872, "longitude": -1.803178}, "prices": {"E10": 148.7, "B7": 154.7}},{"site_id": "gfnxnth4uuex", "brand": "ASDA", "address": "Longside Road, Peterhead", "postcode": "AB42 2FY", "location": {"latitude": 57.508587, "longitude": -1.818092}, "prices": {"E10": 144.7, "B7": 151.7}},{"site_id": "gcw2u382yrv1", "brand": "ASDA", "address": "Pilsworth Road, Bury", "postcode": "BL9 8RS", "location": {"latitude": 53.577771, "longitude": -2.273519}, "prices": {"E10": 142.7, "B7": 151.7}},{"site_id": "gcphru6kc4df", "brand": "ASDA", "address": "Reading Road, Reading", "postcode": "RG7 3EH", "location": {"latitude": 51.396312, "longitude": -1.062601}, "prices": {"E10": 148.7, "B7": 156.7}},{"site_id": "gbvn9cynpbez", "brand": "ASDA", "address": "77-79 Exeter Street, Plymouth", "postcode": "PL4 0AH", "location": {"latitude": 50.371975, "longitude": -4.133268}, "prices": {"E10": 143.7, "B7": 151.7}},{"site_id": "gbvnem77v3bd", "brand": "ASDA", "address": "150 Plymouth Road, Plymouth", "postcode": "PL7 4NE", "location": {"latitude": 50.390824, "longitude": -4.071227}, "prices": {"E10": 145.6, "B7": 154.7}},{"site_id": "gbvnf8rw3070", "brand": "ASDA", "address": "Leypark Drive - Estover, Plymouth", "postcode": "PL6 8TB", "location": {"latitude": 50.407721, "longitude": -4.09854}, "prices": {"E10": 144.7, "B7": 151.7}},{"site_id": "u101jmht38mw", "brand": "ASDA", "address": "Hailsham Road, Polegate", "postcode": "BN26 6QL", "location": {"latitude": 50.829150, "longitude": 0.236964}, "prices": {"E10": 146.7, "B7": 154.7}},{"site_id": "gcvmu4ecdu75", "brand": "ASDA", "address": "Armadale Road, Bathgate", "postcode": "EH47 0ET", "location": {"latitude": 55.869107, "longitude": -3.686810}, "prices": {"E10": 148.7, "B7": 154.7}},{"site_id": "gcuvxkvy940c", "brand": "ASDA", "address": "2 Polmadie Rd, Glasgow", "postcode": "G5 0DZ", "location": {"latitude": 55.837589, "longitude": -4.243468}, "prices": {"E10": 147.7, "B7": 156.7}},{"site_id": "gcjn77nny9f8", "brand": "ASDA", "address": "J49 M4 Motorway, LLanedi", "postcode": "SA4 0FU", "location": {"latitude": 51.746880, "longitude": -4.064905}, "prices": {"E10": 170.9, "B7": 179.9}},{"site_id": "gcjn2j263nfn", "brand": "ASDA", "address": "13 Heol Y Meinciau, Pontyates", "postcode": "SA15 5TR", "location": {"latitude": 51.752895, "longitude": -4.218360}, "prices": {"E10": 144.7, "B7": 152.7}},{"site_id": "gcjtef4c2cch", "brand": "ASDA", "address": "Rhondda Road, Pontypridd", "postcode": "CF37 1HF", "location": {"latitude": 51.603008, "longitude": -3.34702}, "prices": {"E10": 144.7, "B7": 152.7}},{"site_id": "gcn87xqyst81", "brand": "ASDA", "address": "291 Sandbanks Road, Poole", "postcode": "BH14 8EZ", "location": {"latitude": 50.709802, "longitude": -1.946258}, "prices": {"E10": 145.7, "B7": 155.7}},{"site_id": "gcemts6khuyy", "brand": "ASDA", "address": "Bridge Street, Portadown", "postcode": "BT63 5AQ", "location": {"latitude": 54.426234, "longitude": -6.437165}, "prices": {"E10": 140.7, "B7": 149.7}},{"site_id": "gfnkxk18z6n7", "brand": "ASDA", "address": "Muir End Road, Portlethen", "postcode": "AB12 4XP", "location": {"latitude": 57.064144, "longitude": -2.13523}, "prices": {"E10": 146.7, "B7": 157.7}},{"site_id": "gcy8tvkyj972", "brand": "ASDA", "address": "Front Street, Prudhoe", "postcode": "NE42 5DH", "location": {"latitude": 54.961027, "longitude": -1.850481}, "prices": {"E10": 143.7, "B7": 155.7}},{"site_id": "gcwf1fwy1u26", "brand": "ASDA", "address": "Owlcotes Shopping Centre, Leeds", "postcode": "LS28 6AR", "location": {"latitude": 53.803647, "longitude": -1.672593}, "prices": {"E10": 140.7, "B7": 149.7}},{"site_id": "gcnqu1z697kf", "brand": "ASDA", "address": "Naas Lane Link Road, Kingsway, Quedgeley", "postcode": "GL2 2SN", "location": {"latitude": 51.820339, "longitude": -2.276045}, "prices": {"E10": 142.7, "B7": 150.7}},{"site_id": "gcmyejd5qm8y", "brand": "ASDA", "address": "Aston Road, Queensferry", "postcode": "CH5 1TP", "location": {"latitude": 53.205254, "longitude": -3.027189}, "prices": {"E10": 146.7, "B7": 154.7}},{"site_id": "gcw2ejb6jefe", "brand": "ASDA", "address": "Riverside Retail Park, Manchester", "postcode": "M26 3DA", "location": {"latitude": 53.557314, "longitude": -2.328534}, "prices": {"E10": 143.7, "B7": 151.7}},