{"last_updated":"05/04/2024 02:00:20","stations":[{"site_id":"u100yq7n0zz3","brand":"Sainsbury's","address":"Broadwater Way","postcode":"BN22 9PW","location":{"latitude":50.792240,"longitude":0.278820},"prices":{"E10":143.90,"E5":153.90,"B7":151.90}},{"site_id":"u12d0kn28cdt","brand":"Sainsbury's","address":"Forest Retail Park, London Road","postcode":"IP24 3QL","location":{"latitude":52.404880,"longitude":0.722730},"prices":{"E10":145.90,"E5":155.90,"B7":154.90}},{"site_id":"gcpz7h8tkch8","brand":"Sainsbury's","address":"Hitchin Road","postcode":"SG1 4AE","location":{"latitude":51.925040,"longitude":-0.218830},"prices":{"E10":144.90,"E5":154.90,"B7":154.90}},{"site_id":"gcpkr5g2dqrv","brand":"Sainsbury's","address":"Ringmead","postcode":"RG12 7SS","location":{"latitude":51.392790,"longitude":-0.742500},"prices":{"E10":146.90,"E5":156.90,"B7":152.90}},{"site_id":"gcpvyejv7vpc","brand":"Sainsbury's","address":"3 Crown Road","postcode":"EN1 1TH","location":{"latitude":51.653150,"longitude":-0.057850},"prices":{"E10":142.90,"E5":152.90,"B7":151.90}},{"site_id":"gcjf6213nvwy","brand":"Sainsbury's","address":"Hankridge Farm, Hankridge Way","postcode":"TA1 2LR","location":{"latitude":51.020710,"longitude":-3.063170},"prices":{"E10":141.90,"E5":151.90,"B7":151.90}},{"site_id":"gcr5jp44efu3","brand":"Sainsbury's","address":"Grove Farm Triangle, Enderby","postcode":"LE19 1WT","location":{"latitude":52.597490,"longitude":-1.183610},"prices":{"E10":145.90,"E5":155.90,"B7":152.90}},{"site_id":"u10e5c414rtp","brand":"Sainsbury's","address":"Simone Weil Avenue","postcode":"TN24 8YN","location":{"latitude":51.158050,"longitude":0.870770},"prices":{"E10":143.90,"E5":153.90,"B7":151.90}},{"site_id":"gcw9pw1e0ud7","brand":"Sainsbury's","address":"Southgate","postcode":"HD1 6QR","location":{"latitude":53.646780,"longitude":-1.777690},"prices":{"E10":139.90,"E5":149.90,"B7":147.90}},{"site_id":"u10rhsmxr8nk","brand":"Sainsbury's","address":"Mount Road","postcode":"CM7 1XH","location":{"latitude":51.880060,"longitude":0.557200},"prices":{"E10":139.90,"E5":149.90,"B7":146.90}},{"site_id":"gcpxhmugcxz3","brand":"Sainsbury's","address":"2-8 Luton Road","postcode":"LU5 4RF","location":{"latitude":51.887740,"longitude":-0.509760},"prices":{"E10":142.90,"E5":152.90,"B7":151.90}},{"site_id":"gcpy25wv6jt4","brand":"Sainsbury's","address":"Everard Close","postcode":"AL1 2QU","location":{"latitude":51.743790,"longitude":-0.342200},"prices":{"E10":143.90,"E5":153.90,"B7":151.90}},{"site_id":"gcvtzvnc55b3","brand":"Sainsbury's","address":"Straiton Mains, Straiton","postcode":"EH20 9PW","location":{"latitude":55.882150,"longitude":-3.165650},"prices":{"E10":144.90,"E5":154.90,"B7":152.90}},{"site_id":"gcpxq5f04qz6","brand":"Sainsbury's","address":"Quantock Rise","postcode":"LU3 4AB","location":{"latitude":51.920050,"longitude":-0.436600},"prices":{"E10":143.90,"E5":153.90,"B7":154.90}},{"site_id":"gcr6e0vwft2b","brand":"Sainsbury's","address":"St. Mary's Place","postcode":"LE16 7DR","location":{"latitude":52.476010,"longitude":-0.915190},"prices":{"E10":142.90,"E5":152.90,"B7":151.90}},{"site_id":"gcw07wgxghsx","brand":"Sainsbury's","address":"Worthington Way","postcode":"WN3 6XA","location":{"latitude":53.519880,"longitude":-2.653750},"prices":{"E10":142.90,"E5":152.90,"B7":149.90}},{"site_id":"gbumutusmsjy","brand":"Sainsbury's","address":"Treyew Road","postcode":"TR1 3XL","location":{"latitude":50.261830,"longitude":-5.069260},"prices":{"E10":144.90,"E5":154.90,"B7":153.90}},{"site_id":"gcvj7dr96q7u","brand":"Sainsbury's","address":"5 Douglas Park Lane","postcode":"ML3 0DF","location":{"latitude":55.779210,"longitude":-4.054540},"prices":{"E10":144.90,"E5":154.90,"B7":152.90}},{"site_id":"gcnhs7jxw92k","brand":"Sainsbury's","address":"111 Winterstoke Road","postcode":"BS3 2NS","location":{"latitude":51.433790,"longitude":-2.617900},"prices":{"E10":145.90,"E5":155.90,"B7":153.90}},{"site_id":"gcmzyh0h7bx4","brand":"Sainsbury's","address":"112 East Prescot Road","postcode":"L14 5PT","location":{"latitude":53.416260,"longitude":-2.900220},"prices":{"E10":140.90,"E5":150.90,"B7":149.90}},{"site_id":"gcp30r6nq1vq","brand":"Sainsbury's","address":"Fitzherbert Road","postcode":"PO6 1RR","location":{"latitude":50.841690,"longitude":-1.040690},"prices":{"E10":143.90,"E5":153.90,"B7":153.90}},{"site_id":"gcp1m635fzkr","brand":"Sainsbury's","address":"Broadcut","postcode":"PO16 8SU","location":{"latitude":50.857770,"longitude":-1.174040},"prices":{"E10":144.90,"E5":154.90,"B7":154.90}},{"site_id":"gcnx25k19fvj","brand":"Sainsbury's","address":"Gallagher Retail Park","postcode":"GL51 9RR","location":{"latitude":51.917540,"longitude":-2.103800},"prices":{"E10":143.90,"E5":153.90,"B7":150.90}},{"site_id":"gcnhtv077gb5","brand":"Sainsbury's","address":"St. Philips Causeway, Arnos Vale","postcode":"BS4 3BD","location":{"latitude":51.444060,"longitude":-2.559310},"prices":{"E10":143.90,"E5":153.90,"B7":152.90}},{"site_id":"gcmx1pdusgwz","brand":"Sainsbury's","address":"Rhyl Road, Rhuddlan","postcode":"LL18 2TP","location":{"latitude":53.303710,"longitude":-3.467690},"prices":{"E10":145.90,"E5":155.90,"B7":156.90}},{"site_id":"gcr8suyxx1tz","brand":"Sainsbury's","address":"90 Clapham Road","postcode":"MK41 7PJ","location":{"latitude":52.146530,"longitude":-0.485150},"prices":{"E10":143.90,"E5":153.90,"B7":154.90}},{"site_id":"u10hxd3cy2y3","brand":"Sainsbury's","address":"Wingfield Bank, Northfleet","postcode":"DA11 8JH","location":{"latitude":51.428680,"longitude":0.332270},"prices":{"E10":144.90,"E5":154.90,"B7":153.90}},{"site_id":"gcn4c74pp3zy","brand":"Sainsbury's","address":"Gravenchon Way","postcode":"BA16 0HS","location":{"latitude":51.126090,"longitude":-2.754500},"prices":{"E10":147.90,"E5":157.90,"B7":155.90}},{"site_id":"gcptndr8w993","brand":"Sainsbury's","address":"Lombardy Retail Park, Coldharbour Lane","postcode":"UB3 3EX","location":{"latitude":51.516360,"longitude":-0.406900},"prices":{"E10":142.90,"E5":152.90,"B7":150.90}},{"site_id":"gcqzqp1uyvm9","brand":"Sainsbury's","address":"Archer Road","postcode":"S8 0TD","location":{"latitude":53.344960,"longitude":-1.491440},"prices":{"E10":143.90,"E5":153.90,"B7":152.90}},{"site_id":"gcpuz4f0cfds","brand":"Sainsbury's","address":"263d New Cross Road","postcode":"SE14 5UQ","location":{"latitude":51.475210,"longitude":-0.041120},"prices":{"E10":142.90,"E5":152.90,"B7":151.90}},{"site_id":"gcpu44hv5mwv","brand":"Sainsbury's","address":"Kiln Lane","postcode":"KT17 1EQ","location":{"latitude":51.340000,"longitude":-0.257000},"prices":{"E10":146.90,"E5":156.90,"B7":156.90}},{"site_id":"gcpwm6jgxx6y","brand":"Sainsbury's","address":"London Road","postcode":"HP3 9QZ","location":{"latitude":51.735260,"longitude":-0.464190},"prices":{"E10":143.90,"E5":153.90,"B7":148.90}},{"site_id":"gcw9tu95rzds","brand":"Sainsbury's","address":"Wade Street","postcode":"HX1 1SB","location":{"latitude":53.726490,"longitude":-1.854980},"prices":{"E10":143.90,"E5":153.90,"B7":153.90}},{"site_id":"u12gme2pkfx1","brand":"Sainsbury's","address":"1 Brazen Gate","postcode":"NR1 3RX","location":{"latitude":52.621650,"longitude":1.296600},"prices":{"E10":143.90,"E5":153.90,"B7":153.90}},{"site_id":"gcqd98e4x7uq","brand":"Sainsbury's","address":"Halesowen Street","postcode":"B65 0HG","location":{"latitude":52.473900,"longitude":-2.039020},"prices":{"E10":143.90,"E5":153.90,"B7":151.90}},{"site_id":"gcpeeefj0tnn","brand":"Sainsbury's","address":"Clay Lane, Jacob's Well","postcode":"GU4 7JU","location":{"latitude":51.261720,"longitude":-0.546540},"prices":{"E10":143.90,"E5":153.90,"B7":154.90}},{"site_id":"gcwdkwjy3vxh","brand":"Sainsbury's","address":"1 Sainsburys Centre, Cavendish Street","postcode":"BD21 3RU","location":{"latitude":53.867070,"longitude":-1.903640},"prices":{"E10":142.90,"E5":152.90,"B7":150.90}},{"site_id":"gcg8170zz218","brand":"Sainsbury's","address":"4 Braidwater Retail Park, Larne Road Link","postcode":"BT42 3AG","location":{"latitude":54.861560,"longitude":-6.271850},"prices":{"E10":138.90,"E5":148.90,"B7":146.90}},{"site_id":"gcey3t4xggbm","brand":"Sainsbury's","address":"Forestside Shopping Centre, Upper Galwally","postcode":"BT8 6FX","location":{"latitude":54.564950,"longitude":-5.907050},"prices":{"E10":138.90,"E5":148.90,"B7":144.90}},{"site_id":"gcg384nx617g","brand":"Sainsbury's","address":"10 Riverside Regional Centre","postcode":"BT51 3QQ","location":{"latitude":55.119660,"longitude":-6.670670},"prices":{"E10":138.90,"E5":148.90,"B7":145.90}},{"site_id":"gcnkr2d2kj9u","brand":"Sainsbury's","address":"Bath Road","postcode":"SN12 6LL","location":{"latitude":51.374890,"longitude":-2.139070},"prices":{"E10":140.90,"E5":150.90,"B7":149.90}},{"site_id":"gcvpq3bnn47j","brand":"Sainsbury's","address":"Drip Road","postcode":"FK8 1RA","location":{"latitude":56.128820,"longitude":-3.943830},"prices":{"E10":141.90,"E5":151.90,"B7":151.90}},{"site_id":"gfnkzwefzeur","brand":"Sainsbury's","address":"45-47 Garthdee Road","postcode":"AB10 7AY","location":{"latitude":57.121160,"longitude":-2.125870},"prices":{"E10":144.90,"E5":154.90,"B7":155.90}},{"site_id":"gcuyh2uvk2r0","brand":"Sainsbury's","address":"10 Allerdyce Road","postcode":"G15 6RX","location":{"latitude":55.903460,"longitude":-4.376830},"prices":{"E10":144.90,"E5":154.90,"B7":155.90}},{"site_id":"gcwcu1xnenzn","brand":"Sainsbury's","address":"White Rose Shopping Centre","postcode":"LS11 8LS","location":{"latitude":53.754510,"longitude":-1.572280},"prices":{"E10":140.90,"E5":150.90,"B7":149.90}},{"site_id":"gcpux4rg4gej","brand":"Sainsbury's","address":"Southend Lane","postcode":"SE26 4PU","location":{"latitude":51.428910,"longitude":-0.033180},"prices":{"E10":148.90,"E5":158.90,"B7":156.90}},{"site_id":"u10j1e4rhkpq","brand":"Sainsbury's","address":"1 Claps Gate Lane","postcode":"E6 6JF","location":{"latitude":51.521610,"longitude":0.069200},"prices":{"E10":144.90,"E5":154.90,"B7":154.90}},{"site_id":"u10kj461sp44","brand":"Sainsbury's","address":"Hempstead Valley, Hempstead","postcode":"ME7 3PB","location":{"latitude":51.340780,"longitude":0.574210},"prices":{"E10":142.90,"E5":152.90,"B7":152.90}},{"site_id":"gcqdne4jtnqf","brand":"Sainsbury's","address":"545 Stratford Road, Shirley","postcode":"B90 4AJ","location":{"latitude":52.400270,"longitude":-1.820760},"prices":{"E10":143.90,"E5":153.90,"B7":152.90}},{"site_id":"gcr8kxxyd210","brand":"Sainsbury's","address":"Saxon Centre, 252-274 Bedford Road, Kempston","postcode":"MK42 8AY","location":{"latitude":52.117510,"longitude":-0.494630},"prices":{"E10":143.90,"E5":153.90,"B7":152.90}},{"site_id":"gcp7qkfvpj9e","brand":"Sainsbury's","address":"Water Lane","postcode":"GU9 9NJ","location":{"latitude":51.223270,"longitude":-0.775950},"prices":{"E10":142.90,"E5":152.90,"B7":151.90}},{"site_id":"gcpu6bhk7cuh","brand":"Sainsbury's","address":"566 London Road","postcode":"SM3 9AA","location":{"latitude":51.372810,"longitude":-0.224710},"prices":{"E10":145.90,"E5":155.90,"B7":154.90}},{"site_id":"u107fc81b7v2","brand":"Sainsbury's","address":"Quarry Wood Industrial Estate, Mills Road","postcode":"ME20 7NA","location":{"latitude":51.292740,"longitude":0.472430},"prices":{"E10":142.90,"E5":152.90,"B7":152.90}},{"site_id":"gcvj35jbppmb","brand":"Sainsbury's","address":"3 Kingsgate Retail Park, Glasgow Road, East Kilbride","postcode":"G74 4UN","location":{"latitude":55.783120,"longitude":-4.166600},"prices":{"E10":142.90,"E5":152.90,"B7":150.90}},{"site_id":"gcnjjbt6mvvb","brand":"Sainsbury's","address":"Fox Den Road, Stoke Gifford","postcode":"BS34 8SS","location":{"latitude":51.507070,"longitude":-2.552350},"prices":{"E10":144.90,"E5":null,"B7":152.90}},{"site_id":"gcvxr4u5pq6x","brand":"Sainsbury's","address":"Fife Central Retail Park, Chapel Park","postcode":"KY2 6QL","location":{"latitude":56.133820,"longitude":-3.202200},"prices":{"E10":145.90,"E5":155.90,"B7":155.90}},{"site_id":"gcph6hbj5582","brand":"Sainsbury's","address":"Hectors Way","postcode":"RG14 5AB","location":{"latitude":51.399040,"longitude":-1.318230},"prices":{"E10":143.90,"E5":153.90,"B7":151.90}},{"site_id":"gcpecv43042s","brand":"Sainsbury's","address":"Redding Way, Knaphill","postcode":"GU21 2QT","location":{"latitude":51.311830,"longitude":-0.623130},"prices":{"E10":142.90,"E5":152.90,"B7":152.90}},{"site_id":"gcjmntjcmk2g","brand":"Sainsbury's","address":"6A Welsh Designer Outlet Village","postcode":"CF32 9ST","location":{"latitude":51.531610,"longitude":-3.573420},"prices":{"E10":143.90,"E5":153.90,"B7":149.90}},{"site_id":"gcpvmv3dcycq","brand":"Sainsbury's","address":"Williamson Road","postcode":"N4 1UJ","location":{"latitude":51.577200,"longitude":-0.096740},"prices":{"E10":145.90,"E5":155.90,"B7":154.90}},{"site_id":"gcpe4nppe1cf","brand":"Sainsbury's","address":"Woolsack Way","postcode":"GU7 1LQ","location":{"latitude":51.186600,"longitude":-0.605490},"prices":{"E10":143.90,"E5":153.90,"B7":151.90}},{"site_id":"u10h9q5xq05j","brand":"Sainsbury's","address":"1a Philipot Path","postcode":"SE9 5DL","location":{"latitude":51.450220,"longitude":0.060000},"prices":{"E10":143.90,"E5":153.90,"B7":151.90}},{"site_id":"gcqpnbmvq372","brand":"Sainsbury's","address":"Venables Road","postcode":"CW9 5RT","location":{"latitude":53.264000,"longitude":-2.507700},"prices":{"E10":142.90,"E5":null,"B7":150.90}},{"site_id":"gcq04h2p06q6","brand":"Sainsbury's","address":"Barton Yard","postcode":"HR4 0AG","location":{"latitude":52.055810,"longitude":-2.724590},"prices":{"E10":138.90,"E5":148.90,"B7":148.90}},{"site_id":"gcrhhqvxtj7e","brand":"Sainsbury's","address":"Greenclose Lane","postcode":"LE11 5AS","location":{"latitude":52.772770,"longitude":-1.211710},"prices":{"E10":144.90,"E5":154.90,"B7":153.90}},{"site_id":"gcrjh76hsz1m","brand":"Sainsbury's","address":"Stoney Street, Beeston","postcode":"NG9 2LA","location":{"latitude":52.928820,"longitude":-1.216530},"prices":{"E10":139.90,"E5":149.90,"B7":148.90}},{"site_id":"gcqfhe98qmrf","brand":"Sainsbury's","address":"330 Fletchamstead Highway","postcode":"CV4 9BJ","location":{"latitude":52.402110,"longitude":-1.557720},"prices":{"E10":143.90,"E5":153.90,"B7":152.90}},{"site_id":"gcpsn2uxbqkx","brand":"Sainsbury's","address":"Bridge Way","postcode":"KT11 1HW","location":{"latitude":51.333610,"longitude":-0.422270},"prices":{"E10":142.90,"E5":152.90,"B7":152.90}},{"site_id":"u103kxc8bxcw","brand":"Sainsbury's","address":"John Macadam Way","postcode":"TN37 7SQ","location":{"latitude":50.887470,"longitude":0.551400},"prices":{"E10":138.90,"E5":148.90,"B7":149.90}},{"site_id":"gcrpmbxxk4f2","brand":"Sainsbury's","address":"Highgrounds Road, Rhodesia","postcode":"S80 3AT","location":{"latitude":53.309670,"longitude":-1.143090},"prices":{"E10":142.90,"E5":152.90,"B7":150.90}},{"site_id":"u10mmthjs996","brand":"Sainsbury's","address":"21 Stadium Way","postcode":"SS7 3UB","location":{"latitude":51.576270,"longitude":0.598950},"prices":{"E10":144.90,"E5":154.90,"B7":152.90}},{"site_id":"gcrj7rtkpqjj","brand":"Sainsbury's","address":"Main Street, Kimberley","postcode":"NG16 2LY","location":{"latitude":52.996020,"longitude":-1.255900},"prices":{"E10":143.90,"E5":153.90,"B7":152.90}},{"site_id":"gcpss5hhh7qh","brand":"Sainsbury's","address":"The Causeway","postcode":"TW18 3AP","location":{"latitude":51.433200,"longitude":-0.521660},"prices":{"E10":142.90,"E5":152.90,"B7":152.90}},{"site_id":"gcquhrn5tdnz","brand":"Sainsbury's","address":"Civic Way","postcode":"DE11 0AD","location":{"latitude":52.773440,"longitude":-1.562560},"prices":{"E10":141.90,"E5":151.90,"B7":151.90}},{"site_id":"gcwfp2szub17","brand":"Sainsbury's","address":"1 Stile Hill Way, Colton Retail Park, Colton","postcode":"LS15 9JA","location":{"latitude":53.793140,"longitude":-1.432480},"prices":{"E10":145.90,"E5":155.90,"B7":152.90}},{"site_id":"gcn9j3cdr59k","brand":"Sainsbury's","address":"597 Ringwood Road","postcode":"BH22 9AL","location":{"latitude":50.810800,"longitude":-1.876300},"prices":{"E10":142.90,"E5":152.90,"B7":151.90}},{"site_id":"u10nd1m14qk9","brand":"Sainsbury's","address":"Fifth Allende Avenue","postcode":"CM20 2AG","location":{"latitude":51.774650,"longitude":0.094860},"prices":{"E10":141.90,"E5":151.90,"B7":149.90}},{"site_id":"gcr5pwks6bcd","brand":"Sainsbury's","address":"Glen Road, Oadby","postcode":"LE2 4PE","location":{"latitude":52.593660,"longitude":-1.070360},"prices":{"E10":144.90,"E5":null,"B7":154.90}},{"site_id":"gcr01ee3uwhr","brand":"Sainsbury's","address":"Oxford Road","postcode":"OX16 9XA","location":{"latitude":52.050810,"longitude":-1.335670},"prices":{"E10":141.90,"E5":151.90,"B7":149.90}},{"site_id":"gcpwp06gk7yx","brand":"Sainsbury's","address":"Cow Lane","postcode":"WD25 9JS","location":{"latitude":51.681640,"longitude":-0.391540},"prices":{"E10":142.90,"E5":152.90,"B7":151.90}},{"site_id":"gcqrtt1vtj8q","brand":"Sainsbury's","address":"Wilmslow Road","postcode":"SK8 3BB","location":{"latitude":53.378050,"longitude":-2.216620},"prices":{"E10":145.90,"E5":155.90,"B7":153.90}},{"site_id":"gcq6x81sybmb","brand":"Sainsbury's","address":"Sandringham Way","postcode":"DY5 3JR","location":{"latitude":52.471520,"longitude":-2.128990},"prices":{"E10":144.90,"E5":154.90,"B7":152.90}},{"site_id":"u12gdbyw0sgc","brand":"Sainsbury's","address":"William Frost Way, New Costessey","postcode":"NR5 0JS","location":{"latitude":52.651660,"longitude":1.184490},"prices":{"E10":145.90,"E5":155.90,"B7":153.90}},{"site_id":"gcpf2rmh404b","brand":"Sainsbury's","address":"7 Worthing Road","postcode":"RH12 1SQ","location":{"latitude":51.061020,"longitude":-0.333620},"prices":{"E10":141.90,"E5":151.90,"B7":150.90}},{"site_id":"gcybm4wt9mhk","brand":"Sainsbury's","address":"Galleries Shopping Park, Washington Centre","postcode":"NE38 7RU","location":{"latitude":54.902400,"longitude":-1.529100},"prices":{"E10":141.90,"E5":151.90,"B7":151.90}},{"site_id":"gcwf1p2svufz","brand":"Sainsbury's","address":"760 Harrogate Road","postcode":"BD10 0QF","location":{"latitude":53.829730,"longitude":-1.712930},"prices":{"E10":141.90,"E5":151.90,"B7":150.90}},{"site_id":"u100crs69wtx","brand":"Sainsbury's","address":"The Drove","postcode":"BN9 0AG","location":{"latitude":50.798500,"longitude":0.060840},"prices":{"E10":145.90,"E5":155.90,"B7":153.90}},{"site_id":"gcrb3g3tpnmb","brand":"Sainsbury's","address":"Bells Brook","postcode":"SG18 0NA","location":{"latitude":52.093940,"longitude":-0.272290},"prices":{"E10":142.90,"E5":152.90,"B7":154.90}},{"site_id":"gbvndvpk889v","brand":"Sainsbury's","address":"Plymouth Road, Crabtree","postcode":"PL3 6RL","location":{"latitude":50.389570,"longitude":-4.087920},"prices":{"E10":144.90,"E5":154.90,"B7":152.90}},{"site_id":"u104vdxfmk1v","brand":"Sainsbury's","address":"Linden Park Road","postcode":"TN2 5QL","location":{"latitude":51.122540,"longitude":0.252570},"prices":{"E10":146.90,"E5":156.90,"B7":154.90}},{"site_id":"u12b1ucd9r5k","brand":"Sainsbury's","address":"40 Hadleigh Road","postcode":"IP2 0BX","location":{"latitude":52.057810,"longitude":1.133710},"prices":{"E10":143.90,"E5":153.90,"B7":152.90}},{"site_id":"gcr6p7y9ce63","brand":"Sainsbury's","address":"1-3 Rockingham Road","postcode":"NN16 8JY","location":{"latitude":52.403730,"longitude":-0.727090},"prices":{"E10":139.90,"E5":149.90,"B7":148.90}},{"site_id":"gcpy1wg34xg4","brand":"Sainsbury's","address":"Colney Fields Shopping Park, London Colney","postcode":"AL2 1AB","location":{"latitude":51.716980,"longitude":-0.281070},"prices":{"E10":144.90,"E5":154.90,"B7":153.90}},{"site_id":"gcpu7zen88uw","brand":"Sainsbury's","address":"1 Merton High Street","postcode":"SW19 1DD","location":{"latitude":51.414390,"longitude":-0.182620},"prices":{"E10":146.90,"E5":156.90,"B7":155.90}},{"site_id":"gcvwpvn958ct","brand":"Sainsbury's","address":"Cameron Toll Shopping Centre, 6 Lady Road","postcode":"EH16 5PB","location":{"latitude":55.926080,"longitude":-3.165970},"prices":{"E10":144.90,"E5":154.90,"B7":153.90}},{"site_id":"gcqvp37b8kn2","brand":"Sainsbury's","address":"Wyvern Way, Chaddesden","postcode":"DE21 6NZ","location":{"latitude":52.917130,"longitude":-1.434040},"prices":{"E10":144.90,"E5":154.90,"B7":153.90}},{"site_id":"gcqedj7dt167","brand":"Sainsbury's","address":"Voyager Drive, Orbital Retail Centre","postcode":"WS11 8XP","location":{"latitude":52.675760,"longitude":-2.016460},"prices":{"E10":140.90,"E5":150.90,"B7":148.90}},{"site_id":"gcntqf0ffvse","brand":"Sainsbury's","address":"Paddington Drive, Bridgemead","postcode":"SN5 7AA","location":{"latitude":51.559340,"longitude":-1.811590},"prices":{"E10":144.90,"E5":154.90,"B7":152.90}},{"site_id":"gcpzer4c36x6","brand":"Sainsbury's","address":"Third Avenue","postcode":"SG6 2HX","location":{"latitude":51.982040,"longitude":-0.204900},"prices":{"E10":145.90,"E5":155.90,"B7":152.90}},{"site_id":"u1223754nrvc","brand":"Sainsbury's","address":"Haycocks Road","postcode":"CB9 7YL","location":{"latitude":52.092060,"longitude":0.410890},"prices":{"E10":144.90,"E5":154.90,"B7":153.90}},{"site_id":"gcnkxjvpk2c0","brand":"Sainsbury's","address":"Bath Road","postcode":"SN14 0BJ","location":{"latitude":51.448850,"longitude":-2.146270},"prices":{"E10":144.90,"E5":154.90,"B7":152.90}},{"site_id":"gcwzu16x1ngy","brand":"Sainsbury's","address":"Unit K, Arnison Retail Centre, Pity Me","postcode":"DH1 5GD","location":{"latitude":54.807910,"longitude":-1.578550},"prices":{"E10":142.90,"E5":152.90,"B7":150.90}},{"site_id":"gcw2hrntq5he","brand":"Sainsbury's","address":"100 Regent Road","postcode":"M5 4QU","location":{"latitude":53.476870,"longitude":-2.264980},"prices":{"E10":144.90,"E5":154.90,"B7":151.90}},{"site_id":"u12gquyqmndg","brand":"Sainsbury's","address":"Pound Lane","postcode":"NR7 0SR","location":{"latitude":52.629740,"longitude":1.360120},"prices":{"E10":141.90,"E5":151.90,"B7":151.90}},{"site_id":"gcvwq4vf9b34","brand":"Sainsbury's","address":"185 Craighleith Road","postcode":"EH4 2EB","location":{"latitude":55.957920,"longitude":-3.243980},"prices":{"E10":145.90,"E5":155.90,"B7":153.90}},{"site_id":"gcjvg5jsy8e3","brand":"Sainsbury's","address":"Llewellyn Road","postcode":"NP44 1UL","location":{"latitude":51.653040,"longitude":-3.024390},"prices":{"E10":142.90,"E5":152.90,"B7":151.90}},{"site_id":"gcpsx7qr4v86","brand":"Sainsbury's","address":"303 Uxbridge Road, Hampton Hill","postcode":"TW12 1AW","location":{"latitude":51.435100,"longitude":-0.375820},"prices":{"E10":146.90,"E5":156.90,"B7":153.90}},{"site_id":"gcwc7j9f8zbc","brand":"Sainsbury's","address":"Railway Street","postcode":"WF12 8EB","location":{"latitude":53.687910,"longitude":-1.623540},"prices":{"E10":139.90,"E5":null,"B7":149.90}},{"site_id":"gcz00p87t3cn","brand":"Sainsbury's","address":"Silksworth Lane","postcode":"SR3 1PD","location":{"latitude":54.885560,"longitude":-1.405680},"prices":{"E10":143.90,"E5":153.90,"B7":151.90}},{"site_id":"gcp9pwm9ccjh","brand":"Sainsbury's","address":"Downland Business Park, Lyons Farm","postcode":"BN14 9LA","location":{"latitude":50.835420,"longitude":-0.365900},"prices":{"E10":144.90,"E5":154.90,"B7":152.90}},{"site_id":"gcx0x7zj1snc","brand":"Sainsbury's","address":"Thorne Road","postcode":"DN2 5PS","location":{"latitude":53.546870,"longitude":-1.077960},"prices":{"E10":141.90,"E5":151.90,"B7":152.90}},{"site_id":"gcj4e071xy9p","brand":"Sainsbury's","address":"Gratton Way, Roundswell Buisness Park","postcode":"EX31 3NH","location":{"latitude":51.066120,"longitude":-4.082460},"prices":{"E10":142.90,"E5":152.90,"B7":151.90}},{"site_id":"gcn8skzqhvj2","brand":"Sainsbury's","address":"4 Alder Park, Alder Road","postcode":"BH12 4BA","location":{"latitude":50.740040,"longitude":-1.912440},"prices":{"E10":144.90,"E5":154.90,"B7":152.90}},{"site_id":"gcp6cyc5fx3b","brand":"Sainsbury's","address":"Draymans Way","postcode":"GU34 1SS","location":{"latitude":51.146160,"longitude":-0.976300},"prices":{"E10":147.90,"E5":157.90,"B7":155.90}},{"site_id":"gcmz9mw8jppk","brand":"Sainsbury's","address":"Upton By Pass","postcode":"CH49 6QG","location":{"latitude":53.379860,"longitude":-3.099980},"prices":{"E10":143.90,"E5":153.90,"B7":153.90}},{"site_id":"gbvrpp1g72jx","brand":"Sainsbury's","address":"Nicholson Road","postcode":"TQ2 7HT","location":{"latitude":50.488230,"longitude":-3.557020},"prices":{"E10":139.90,"E5":149.90,"B7":150.90}},{"site_id":"gcuvmpn1kpg2","brand":"Sainsbury's","address":"10 Darnley Mains Road ","postcode":"G53 7RH","location":{"latitude":55.805310,"longitude":-4.342170},"prices":{"E10":142.90,"E5":152.90,"B7":150.90}},{"site_id":"gcpv1nm84jy5","brand":"Sainsbury's","address":"360 Ealing Road","postcode":"HA0 1PF","location":{"latitude":51.538270,"longitude":-0.299970},"prices":{"E10":143.90,"E5":153.90,"B7":153.90}},{"site_id":"u10fdmxehm6x","brand":"Sainsbury's","address":"Park Farm Retail Park, Park Farm Road","postcode":"CT19 5GA","location":{"latitude":51.095210,"longitude":1.164050},"prices":{"E10":143.90,"E5":153.90,"B7":151.90}},{"site_id":"u10u0jw6zzt1","brand":"Sainsbury's","address":"Reeves Way, Chestfield","postcode":"CT5 3QS","location":{"latitude":51.358850,"longitude":1.063610},"prices":{"E10":143.90,"E5":153.90,"B7":153.90}},{"site_id":"gcx705vj9fkk","brand":"Sainsbury's","address":"Jockey Lane, Huntington","postcode":"YO32 9LG","location":{"latitude":53.986400,"longitude":-1.047740},"prices":{"E10":143.90,"E5":153.90,"B7":152.90}},{"site_id":"gcmzn2ne93gn","brand":"Sainsbury's","address":"Kinsey Road","postcode":"CH65 9HN","location":{"latitude":53.262330,"longitude":-2.880420},"prices":{"E10":142.90,"E5":152.90,"B7":148.90}},{"site_id":"gcpc5r4q9ggu","brand":"Sainsbury's","address":"361-367 Old Shoreham Rd","postcode":"BN3 7GD","location":{"latitude":50.840370,"longitude":-0.205570},"prices":{"E10":146.90,"E5":null,"B7":154.90}},{"site_id":"gcj88gcss17k","brand":"Sainsbury's","address":"1 Hill Barton Road","postcode":"EX1 3PF","location":{"latitude":50.734270,"longitude":-3.480430},"prices":{"E10":144.90,"E5":null,"B7":152.90}},{"site_id":"gcw1fvdd2ksb","brand":"Sainsbury's","address":"Flintoff Way","postcode":"PR1 6PJ","location":{"latitude":53.775740,"longitude":-2.688200},"prices":{"E10":140.90,"E5":150.90,"B7":149.90}},{"site_id":"gcpfgddh5kjg","brand":"Sainsbury's","address":"Crawley Avenue","postcode":"RH10 8NF","location":{"latitude":51.122840,"longitude":-0.194860},"prices":{"E10":139.90,"E5":null,"B7":147.90}},{"site_id":"u10q7svrenzt","brand":"Sainsbury's","address":"White Hart Lane","postcode":"CM2 5PA","location":{"latitude":51.751050,"longitude":0.512720},"prices":{"E10":144.90,"E5":154.90,"B7":152.90}},{"site_id":"gcq78nnv3udp","brand":"Sainsbury's","address":"Telford Forge Retail Park, Colliers Way, Old Park","postcode":"TF3 4AG","location":{"latitude":52.680370,"longitude":-2.451590},"prices":{"E10":145.90,"E5":155.90,"B7":151.90}},{"site_id":"gcuewvn4cxp3","brand":"Sainsbury's","address":"125 Ayr Road","postcode":"KA9 1TW","location":{"latitude":55.486960,"longitude":-4.616930},"prices":{"E10":142.90,"E5":152.90,"B7":150.90}},{"site_id":"gcp3nz8r4rjj","brand":"Sainsbury's","address":"Westhampnett Road","postcode":"PO19 7YR","location":{"latitude":50.843220,"longitude":-0.757610},"prices":{"E10":140.90,"E5":150.90,"B7":150.90}},{"site_id":"gcpndzt4kqch","brand":"Sainsbury's","address":"289 Oxford Road","postcode":"OX5 2PE","location":{"latitude":51.809200,"longitude":-1.278350},"prices":{"E10":144.90,"E5":154.90,"B7":151.90}},{"site_id":"gcw2b8y8wm21","brand":"Sainsbury's","address":"Trinity Street","postcode":"BL3 6DH","location":{"latitude":53.573570,"longitude":-2.429770},"prices":{"E10":142.90,"E5":152.90,"B7":150.90}},{"site_id":"gcycnk6zme3k","brand":"Sainsbury's","address":"Newstead Drive","postcode":"NE25 9EX","location":{"latitude":55.044140,"longitude":-1.479140},"prices":{"E10":144.90,"E5":154.90,"B7":152.90}},{"site_id":"gcrg5j7duwt1","brand":"Sainsbury's","address":"Oxney Road","postcode":"PE1 5NG","location":{"latitude":52.587940,"longitude":-0.214720},"prices":{"E10":138.90,"E5":148.90,"B7":149.90}},{"site_id":"gcq9eguf7hnn","brand":"Sainsbury's","address":"Abbey Trading Centre, Alvechurch Highway","postcode":"B97 6RF","location":{"latitude":52.315930,"longitude":-1.937920},"prices":{"E10":141.90,"E5":151.90,"B7":150.90}},{"site_id":"gcrjn71h09mm","brand":"Sainsbury's","address":"100 Melton Road","postcode":"NG2 6EP","location":{"latitude":52.927330,"longitude":-1.130190},"prices":{"E10":142.90,"E5":152.90,"B7":150.90}},{"site_id":"gbvqxvessc29","brand":"Sainsbury's","address":"76 New Road","postcode":"TQ5 8NJ","location":{"latitude":50.392320,"longitude":-3.521600},"prices":{"E10":140.90,"E5":150.90,"B7":148.90}},{"site_id":"gcmz98eg2qdz","brand":"Sainsbury's","address":"Pensby Road","postcode":"CH61 7UB","location":{"latitude":53.352950,"longitude":-3.092980},"prices":{"E10":143.90,"E5":153.90,"B7":152.90}},{"site_id":"gcpn5zx9dcjt","brand":"Sainsbury's","address":"Heyford Hill, Littlemore","postcode":"OX4 4XR","location":{"latitude":51.721150,"longitude":-1.231030},"prices":{"E10":142.90,"E5":152.90,"B7":150.90}},{"site_id":"gcqyzy86n37t","brand":"Sainsbury's","address":"Rother Way","postcode":"S41 0UB","location":{"latitude":53.253830,"longitude":-1.416620},"prices":{"E10":142.90,"E5":null,"B7":152.90}},{"site_id":"gcr1fcyvvrun","brand":"Sainsbury's","address":"385 Dunchurch Road","postcode":"CV22 6HU","location":{"latitude":52.349510,"longitude":-1.275900},"prices":{"E10":143.90,"E5":153.90,"B7":149.90}},{"site_id":"gcxn7xxe0srs","brand":"Sainsbury's","address":"32 Wilson Street","postcode":"TS1 1RP","location":{"latitude":54.577870,"longitude":-1.242110},"prices":{"E10":143.90,"E5":null,"B7":152.90}},{"site_id":"gcw2pe2dyw99","brand":"Sainsbury's","address":"Oldham Street, Denton","postcode":"M34 3SJ","location":{"latitude":53.455860,"longitude":-2.130380},"prices":{"E10":142.90,"E5":152.90,"B7":152.90}},{"site_id":"gcqckv28qrtx","brand":"Sainsbury's","address":"The Shires Retail Park, Tachbrook Park Drive","postcode":"CV34 6RH","location":{"latitude":52.279900,"longitude":-1.548110},"prices":{"E10":143.90,"E5":153.90,"B7":151.90}},{"site_id":"u10jkj1tjy3s","brand":"Sainsbury's","address":"1 The Brewery","postcode":"RM1 1AU","location":{"latitude":51.576210,"longitude":0.178090},"prices":{"E10":142.90,"E5":152.90,"B7":152.90}},{"site_id":"u10me2j34fjs","brand":"Sainsbury's","address":"Cricketers Retail Park, Cricketers Way","postcode":"SS13 1SA","location":{"latitude":51.591980,"longitude":0.501720},"prices":{"E10":143.90,"E5":153.90,"B7":151.90}},{"site_id":"gcnhzvb09tph","brand":"Sainsbury's","address":"The Village, Emerson Way, Emersons Green","postcode":"BS16 7AE","location":{"latitude":51.491660,"longitude":-2.471850},"prices":{"E10":145.90,"E5":155.90,"B7":154.90}},{"site_id":"gcmzujthk895","brand":"Sainsbury's","address":"Great Homer Street, Great Homer Street","postcode":"L5 3LQ","location":{"latitude":53.424500,"longitude":-2.981220},"prices":{"E10":142.90,"E5":152.90,"B7":150.90}},{"site_id":"gcjf1w8refxw","brand":"Sainsbury's","address":"Billet Street","postcode":"TA1 3NE","location":{"latitude":51.013570,"longitude":-3.097630},"prices":{"E10":141.90,"E5":null,"B7":151.90}},{"site_id":"gcp43kx5c39q","brand":"Sainsbury's","address":"Badger Farm Road","postcode":"SO22 4QB","location":{"latitude":51.045880,"longitude":-1.341650},"prices":{"E10":144.90,"E5":154.90,"B7":152.90}},{"site_id":"gcptr13zf2mc","brand":"Sainsbury's","address":"Long Drive","postcode":"HA4 0HQ","location":{"latitude":51.556050,"longitude":-0.393000},"prices":{"E10":143.90,"E5":153.90,"B7":152.90}},{"site_id":"u10hbmh5457k","brand":"Sainsbury's","address":"Peartree Way","postcode":"SE10 0QJ","location":{"latitude":51.487960,"longitude":0.016570},"prices":{"E10":143.90,"E5":153.90,"B7":150.90}},{"site_id":"gcphxuevwegv","brand":"Sainsbury's","address":"Bath Road, Calcot","postcode":"RG31 7SA","location":{"latitude":51.441700,"longitude":-1.060240},"prices":{"E10":141.90,"E5":151.90,"B7":149.90}},{"site_id":"gcr3rxs4jxwq","brand":"Sainsbury's","address":"260 Northampton Road","postcode":"NN8 3GZ","location":{"latitude":52.292560,"longitude":-0.719360},"prices":{"E10":142.90,"E5":152.90,"B7":151.90}},{"site_id":"gcqe4qzucvzq","brand":"Sainsbury's","address":"Reedswood Way","postcode":"WS2 8XA","location":{"latitude":52.596520,"longitude":-1.999770},"prices":{"E10":144.90,"E5":154.90,"B7":152.90}},{"site_id":"gcmvgd2zum1j","brand":"Sainsbury's","address":"Retail Park, Plas Coch Road","postcode":"LL11 2BA","location":{"latitude":53.055710,"longitude":-3.009040},"prices":{"E10":139.90,"E5":149.90,"B7":149.90}},{"site_id":"gcjfgu39csdq","brand":"Sainsbury's","address":"The Clink","postcode":"TA6 4AB","location":{"latitude":51.132070,"longitude":-2.997140},"prices":{"E10":140.90,"E5":150.90,"B7":149.90}},{"site_id":"gcnhwx0865d5","brand":"Sainsbury's","address":"Nags Head Hill","postcode":"BS5 8QN","location":{"latitude":51.454530,"longitude":-2.526080},"prices":{"E10":144.90,"E5":154.90,"B7":153.90}},{"site_id":"gcwgjgv3hkew","brand":"Sainsbury's","address":"Wetherby Road","postcode":"HG2 8QZ","location":{"latitude":53.985640,"longitude":-1.497730},"prices":{"E10":145.90,"E5":155.90,"B7":153.90}},{"site_id":"gcpum2d6j9fd","brand":"Sainsbury's","address":"Drury Crescent","postcode":"CR0 4XT","location":{"latitude":51.375170,"longitude":-0.117520},"prices":{"E10":143.90,"E5":153.90,"B7":152.90}},{"site_id":"gcr34twxyywn","brand":"Sainsbury's","address":"20 Gambrel Road, Westgate Industrial Estate","postcode":"NN5 5DG","location":{"latitude":52.238610,"longitude":-0.935600},"prices":{"E10":144.90,"E5":154.90,"B7":152.90}},{"site_id":"gcvwhbnvr7fy","brand":"Sainsbury's","address":"Lanark Road West","postcode":"EH14 5JX","location":{"latitude":55.899360,"longitude":-3.297300},"prices":{"E10":144.90,"E5":154.90,"B7":153.90}},{"site_id":"gcw1e78qpk47","brand":"Sainsbury's","address":"Cuerden Way, Bamber Bridge","postcode":"PR5 6BJ","location":{"latitude":53.721450,"longitude":-2.669020},"prices":{"E10":142.90,"E5":152.90,"B7":151.90}},{"site_id":"gfjcq3ce8td0","brand":"Sainsbury's","address":"1 Tom Johnston Road","postcode":"DD4 8XD","location":{"latitude":56.479970,"longitude":-2.887320},"prices":{"E10":142.90,"E5":152.90,"B7":151.90}},{"site_id":"gcpuc3r5tu0c","brand":"Sainsbury's","address":"Lower Richmond Road","postcode":"TW9 4LT","location":{"latitude":51.467450,"longitude":-0.286770},"prices":{"E10":142.90,"E5":152.90,"B7":151.90}},{"site_id":"gcqg3hwsz1pt","brand":"Sainsbury's","address":"Bitterscote Drive, Bonehill","postcode":"B78 3HD","location":{"latitude":52.628080,"longitude":-1.704630},"prices":{"E10":141.90,"E5":151.90,"B7":151.90}},{"site_id":"gcwf3s91fk5q","brand":"Sainsbury's","address":"Apperley Lane, Yeadon","postcode":"LS19 7BZ","location":{"latitude":53.858050,"longitude":-1.690420},"prices":{"E10":142.90,"E5":152.90,"B7":150.90}},{"site_id":"gcph33x4ccrw","brand":"Sainsbury's","address":"170 Andover Road","postcode":"RG14 6NT","location":{"latitude":51.380790,"longitude":-1.341620},"prices":{"E10":143.90,"E5":153.90,"B7":151.90}},{"site_id":"gcq3qcxvxp67","brand":"Sainsbury's","address":"141 - 149 Worcester Road","postcode":"WR9 8AR","location":{"latitude":52.260200,"longitude":-2.153360},"prices":{"E10":146.90,"E5":156.90,"B7":151.90}},{"site_id":"gcqf4748rbzq","brand":"Sainsbury's","address":"Kenilworth Road","postcode":"CV7 7EU","location":{"latitude":52.399340,"longitude":-1.655160},"prices":{"E10":146.90,"E5":156.90,"B7":154.90}},{"site_id":"gcpusw89hnbj","brand":"Sainsbury's","address":"39 Nightingale Lane","postcode":"SW12 8SY","location":{"latitude":51.451930,"longitude":-0.152950},"prices":{"E10":149.90,"E5":159.90,"B7":156.90}},{"site_id":"gcpghmbd2fst","brand":"Sainsbury's","address":"21 Bonehurst Road","postcode":"RH6 8PJ","location":{"latitude":51.184330,"longitude":-0.164070},"prices":{"E10":141.90,"E5":151.90,"B7":149.90}},{"site_id":"gcp5qnfe76sh","brand":"Sainsbury's","address":"3 Wallop Drive","postcode":"RG22 4TW","location":{"latitude":51.233940,"longitude":-1.139000},"prices":{"E10":144.90,"E5":154.90,"B7":153.90}},{"site_id":"gcuvyf8k4e2u","brand":"Sainsbury's","address":"88 Woodlands Road","postcode":"G3 6HA","location":{"latitude":55.868930,"longitude":-4.273230},"prices":{"E10":144.90,"E5":154.90,"B7":153.90}},{"site_id":"gcpufcr74j0s","brand":"Sainsbury's","address":"95-105 Lower Richmond Road","postcode":"SW15 1EU","location":{"latitude":51.467370,"longitude":-0.220670},"prices":{"E10":146.90,"E5":156.90,"B7":155.90}},{"site_id":"gcpy3p0nm23k","brand":"Sainsbury's","address":"185 Marshalswick Lane","postcode":"AL1 4UZ","location":{"latitude":51.763160,"longitude":-0.307390},"prices":{"E10":144.90,"E5":154.90,"B7":153.90}},{"site_id":"gcp1dj6fz929","brand":"Sainsbury's","address":"Tollbar Way, Hedge End","postcode":"SO30 2UH","location":{"latitude":50.917990,"longitude":-1.314260},"prices":{"E10":145.90,"E5":155.90,"B7":152.90}},{"site_id":"gcmze1kbqxeq","brand":"Sainsbury's","address":"152 Kings Road , Birkenhead","postcode":"CH63 8PZ","location":{"latitude":53.356560,"longitude":-3.025420},"prices":{"E10":143.90,"E5":153.90,"B7":151.90}},{"site_id":"gcpuqhb5f0es","brand":"Sainsbury's","address":"120-122 Whitehorse Lane","postcode":"SE25 6XB","location":{"latitude":51.398810,"longitude":-0.087800},"prices":{"E10":145.90,"E5":155.90,"B7":153.90}},{"site_id":"gcnrjcwnk7rr","brand":"Sainsbury's","address":"Barnett Way, Barnwood","postcode":"GL4 3RT","location":{"latitude":51.864800,"longitude":-2.199820},"prices":{"E10":141.90,"E5":151.90,"B7":149.90}},{"site_id":"gcxby01zs75e","brand":"Sainsbury's","address":"Corporation Road","postcode":"DN31 1UF","location":{"latitude":53.570640,"longitude":-0.085300},"prices":{"E10":144.90,"E5":154.90,"B7":152.90}},{"site_id":"gcrjjqruuc0h","brand":"Sainsbury's","address":"11 Castle Bridge Road","postcode":"NG7 1GX","location":{"latitude":52.945310,"longitude":-1.164690},"prices":{"E10":143.90,"E5":153.90,"B7":152.90}},{"site_id":"gcqvjdn2ek08","brand":"Sainsbury's","address":"Kingsway Retail Park, Kingsway","postcode":"DE22 3FA","location":{"latitude":52.921250,"longitude":-1.507390},"prices":{"E10":145.90,"E5":155.90,"B7":151.90}},{"site_id":"gcnv2tk483uk","brand":"Sainsbury's","address":"Oxford Road","postcode":"SN3 4EW","location":{"latitude":51.577130,"longitude":-1.730330},"prices":{"E10":145.90,"E5":155.90,"B7":153.90}},{"site_id":"u10hsn1qy74g","brand":"Sainsbury's","address":"Stadium Way","postcode":"DA1 4HW","location":{"latitude":51.450150,"longitude":0.177770},"prices":{"E10":145.90,"E5":155.90,"B7":154.90}},{"site_id":"u12b52zfxjv0","brand":"Sainsbury's","address":"Felixstowe Road","postcode":"IP3 8TQ","location":{"latitude":52.035830,"longitude":1.208460},"prices":{"E10":142.90,"E5":152.90,"B7":151.90}},{"site_id":"gcqptpzc3dse","brand":"Sainsbury's","address":"100 Church Street","postcode":"WA1 2TN","location":{"latitude":53.392410,"longitude":-2.582060},"prices":{"E10":143.90,"E5":153.90,"B7":151.90}},{"site_id":"gcp1u7gm0kwm","brand":"Sainsbury's","address":"Winchester Road, Bishops Waltham","postcode":"SO32 1BA","location":{"latitude":50.954100,"longitude":-1.215000},"prices":{"E10":146.90,"E5":156.90,"B7":154.90}},{"site_id":"gcjtpq1rr053","brand":"Sainsbury's","address":"District Shopping Centre, Excalibur Drive, Thornhill","postcode":"CF14 9BB","location":{"latitude":51.538110,"longitude":-3.195000},"prices":{"E10":144.90,"E5":154.90,"B7":153.90}},{"site_id":"gcx9wknv36ds","brand":"Sainsbury's","address":"Sainsbury Way","postcode":"HU13 9NS","location":{"latitude":53.724060,"longitude":-0.419140},"prices":{"E10":144.90,"E5":154.90,"B7":151.90}},{"site_id":"gcrjr8cc32dr","brand":"Sainsbury's","address":"Road Number 3, Colwick","postcode":"NG4 2JN","location":{"latitude":52.958440,"longitude":-1.074200},"prices":{"E10":143.90,"E5":null,"B7":152.90}},{"site_id":"u10p526q6yx3","brand":"Sainsbury's","address":"1 Thorley Neighborhood Centre","postcode":"CM23 4EG","location":{"latitude":51.857950,"longitude":0.146040},"prices":{"E10":145.90,"E5":155.90,"B7":154.90}},{"site_id":"gcpqv1zjhuen","brand":"Sainsbury's","address":"23 Gatehouse Road","postcode":"HP19 8EH","location":{"latitude":51.822020,"longitude":-0.825140},"prices":{"E10":142.90,"E5":null,"B7":151.90}},{"site_id":"gcmyx1bxptj4","brand":"Sainsbury's","address":"Caldy Valley Road, Great Boughton","postcode":"CH3 5QJ","location":{"latitude":53.184670,"longitude":-2.855430},"prices":{"E10":147.90,"E5":157.90,"B7":154.90}},{"site_id":"gcjubqsdztg7","brand":"Sainsbury's","address":"Colchester Avenue, Penylan","postcode":"CF23 9XN","location":{"latitude":51.496170,"longitude":-3.146570},"prices":{"E10":142.90,"E5":null,"B7":153.90}},{"site_id":"gcmzdssf28gq","brand":"Sainsbury's","address":"342a Woodchurch Road","postcode":"CH42 8PQ","location":{"latitude":53.374720,"longitude":-3.047650},"prices":{"E10":144.90,"E5":154.90,"B7":153.90}},{"site_id":"gcq7jyu6k646","brand":"Sainsbury's","address":"1 Anders Square, Perton","postcode":"WV6 7QH","location":{"latitude":52.596070,"longitude":-2.202230},"prices":{"E10":143.90,"E5":153.90,"B7":151.90}},{"site_id":"u105nppr7p67","brand":"Sainsbury's","address":"Angel Centre","postcode":"TN9 1SF","location":{"latitude":51.192080,"longitude":0.273760},"prices":{"E10":148.90,"E5":158.90,"B7":158.90}},{"site_id":"gcr0n13ut8nw","brand":"Sainsbury's","address":"Northampton Road","postcode":"NN13 7DL","location":{"latitude":52.038890,"longitude":-1.139930},"prices":{"E10":140.90,"E5":null,"B7":148.90}},{"site_id":"gcq7pk7u1qrb","brand":"Sainsbury's","address":"Raglan Street","postcode":"WV3 0ST","location":{"latitude":52.582660,"longitude":-2.137120},"prices":{"E10":137.90,"E5":147.90,"B7":147.90}},{"site_id":"gcpske2gmge3","brand":"Sainsbury's","address":"1 The Sainsbury Centre, Guildford Street","postcode":"KT16 9AG","location":{"latitude":51.390500,"longitude":-0.504090},"prices":{"E10":143.90,"E5":null,"B7":153.90}},{"site_id":"u10mvg0tmmp3","brand":"Sainsbury's","address":"Burnham Road","postcode":"CM3 5QP","location":{"latitude":51.653150,"longitude":0.605170},"prices":{"E10":143.90,"E5":null,"B7":152.90}},{"site_id":"gcwj1sm0wpy4","brand":"Sainsbury's","address":"Mint Bridge , Shap Road","postcode":"LA9 6DL","location":{"latitude":54.339880,"longitude":-2.739450},"prices":{"E10":144.90,"E5":null,"B7":152.90}},{"site_id":"gcpzhr5mgh45","brand":"Sainsbury's","address":"Magpie Crescent","postcode":"SG2 7DU","location":{"latitude":51.894930,"longitude":-0.160200},"prices":{"E10":144.90,"E5":154.90,"B7":153.90}},{"site_id":"u10uptrb7fqt","brand":"Sainsbury's","address":"Dadson Way","postcode":"CT12 5FJ","location":{"latitude":51.357020,"longitude":1.395090},"prices":{"E10":139.90,"E5":149.90,"B7":150.90}},{"site_id":"gcqzzgr9jgzk","brand":"Sainsbury's","address":"Vulcan Rd ","postcode":"S9 1EW","location":{"latitude":53.411600,"longitude":-1.406680},"prices":{"E10":144.90,"E5":154.90,"B7":152.90}},{"site_id":"u10u4n5yujpd","brand":"Sainsbury's","address":"Altira Business Park , 6 The Boulevard Herne Bay","postcode":"CT6 6GZ","location":{"latitude":51.362270,"longitude":1.147910},"prices":{"E10":143.90,"E5":null,"B7":153.90}},{"site_id":"gcpv55fjkfkw","brand":"Sainsbury's","address":"2 Canal Way, Ladbroke Grove","postcode":"W10 5AA","location":{"latitude":51.525420,"longitude":-0.216770},"prices":{"E10":142.90,"E5":152.90,"B7":153.90}},{"site_id":"gctf4whv7g5z","brand":"Sainsbury's","address":"Buchanan Street","postcode":"FY1 3BP","location":{"latitude":53.822940,"longitude":-3.047510},"prices":{"E10":143.90,"E5":153.90,"B7":151.90}},{"site_id":"gcr5wgfr6zbb","brand":"Sainsbury's","address":"Melton Road","postcode":"LE4 7PD","location":{"latitude":52.668370,"longitude":-1.106410},"prices":{"E10":143.90,"E5":153.90,"B7":152.90}},{"site_id":"gcqcbn4dydpw","brand":"Sainsbury's","address":"4 Grange Road, Dorridge, Dorridge","postcode":"B93 8QR","location":{"latitude":52.372310,"longitude":-1.754090},"prices":{"E10":143.90,"E5":153.90,"B7":152.90}},{"site_id":"gcqd7g43gqpb","brand":"Sainsbury's","address":"Selly Oak , Aston Webb Boulevard","postcode":"B29 6SJ","location":{"latitude":52.443570,"longitude":-1.941340},"prices":{"E10":140.90,"E5":150.90,"B7":148.90}},{"site_id":"gcncz12r1nqz","brand":"Sainsbury's","address":"Superstore 1, Lordshill District Centre","postcode":"SO16 8HY","location":{"latitude":50.940720,"longitude":-1.449800},"prices":{"E10":145.90,"E5":155.90,"B7":154.90}},{"site_id":"gcvwjuxqu2be","brand":"Sainsbury's","address":"Inglis Green Road","postcode":"EH14 2ER","location":{"latitude":55.924320,"longitude":-3.252800},"prices":{"E10":143.90,"E5":153.90,"B7":151.90}},{"site_id":"gcn0pcz9mrys","brand":"Sainsbury's","address":"Mercury Road","postcode":"DT3 5BJ","location":{"latitude":50.634870,"longitude":-2.461390},"prices":{"E10":145.90,"E5":155.90,"B7":153.90}},{"site_id":"gcw0q7xrjj08","brand":"Sainsbury's","address":"Parsonage Retail Park, Parsonage Way","postcode":"WN7 5SJ","location":{"latitude":53.501900,"longitude":-2.527670},"prices":{"E10":140.90,"E5":150.90,"B7":148.90}},{"site_id":"gcwyzp10w9d7","brand":"Sainsbury's","address":"Salters Lane, Sedgefield","postcode":"TS21 3EE","location":{"latitude":54.662570,"longitude":-1.448540},"prices":{"E10":138.90,"E5":148.90,"B7":150.90}},{"site_id":"u1280bfkn6tb","brand":"Sainsbury's","address":"66 Conrad Road","postcode":"CO10 2XB","location":{"latitude":52.036070,"longitude":0.739450},"prices":{"E10":143.90,"E5":null,"B7":153.90}},{"site_id":"gcybrtusq9fb","brand":"Sainsbury's","address":"Riverside Road","postcode":"SR5 3JG","location":{"latitude":54.920020,"longitude":-1.421760},"prices":{"E10":141.90,"E5":151.90,"B7":151.90}},{"site_id":"gcwcmgvjughv","brand":"Sainsbury's","address":"50 Ings Road","postcode":"WF1 1RS","location":{"latitude":53.678830,"longitude":-1.498050},"prices":{"E10":142.90,"E5":152.90,"B7":151.90}},{"site_id":"u12k13pfsk0r","brand":"Sainsbury's","address":"Scania Way, Hardwick Industrial Estate","postcode":"PE30 4LR","location":{"latitude":52.740320,"longitude":0.417320},"prices":{"E10":143.90,"E5":153.90,"B7":154.90}},{"site_id":"gcp8bzsjq4eu","brand":"Sainsbury's","address":"Shripney Road ","postcode":"PO22 9FB","location":{"latitude":50.798950,"longitude":-0.664410},"prices":{"E10":142.90,"E5":152.90,"B7":152.90}},{"site_id":"gcjujvbupd7g","brand":"Sainsbury's","address":"Queensway","postcode":"BS22 6BL","location":{"latitude":51.360410,"longitude":-2.910020},"prices":{"E10":144.90,"E5":154.90,"B7":154.90}},{"site_id":"gcp32qvqy91f","brand":"Sainsbury's","address":"Waterlooville, Waterlooville","postcode":"PO7 7AU","location":{"latitude":50.882970,"longitude":-1.036210},"prices":{"E10":143.90,"E5":153.90,"B7":152.90}},{"site_id":"gcw2t41k8z9d","brand":"Sainsbury's","address":"Heaton Park Road","postcode":"M9 0QS","location":{"latitude":53.537190,"longitude":-2.239460},"prices":{"E10":142.90,"E5":152.90,"B7":150.90}},{"site_id":"gcvbkcq7nd2p","brand":"Sainsbury's","address":"Church Street, Caldewgate","postcode":"CA2 5TF","location":{"latitude":54.895090,"longitude":-2.946460},"prices":{"E10":142.90,"E5":152.90,"B7":150.90}},{"site_id":"gbuj4mwtx1ke","brand":"Sainsbury's","address":"Eastern Green, Penzance","postcode":"TR18 3AP","location":{"latitude":50.128820,"longitude":-5.516890},"prices":{"E10":142.90,"E5":152.90,"B7":151.90}},{"site_id":"gcqw1skjgcf0","brand":"Sainsbury's","address":"Churnet Way","postcode":"ST13 8YG","location":{"latitude":53.110280,"longitude":-2.037800},"prices":{"E10":144.90,"E5":154.90,"B7":149.90}},{"site_id":"gcjts1xf0zqq","brand":"Sainsbury's","address":"Brown Lennox Retail Park, Ynysangharad Road","postcode":"CF37 4DA","location":{"latitude":51.600420,"longitude":-3.329160},"prices":{"E10":144.90,"E5":154.90,"B7":152.90}},{"site_id":"gcxtfk1z4btj","brand":"Sainsbury's","address":"Stainsacre Lane","postcode":"YO22 4NL","location":{"latitude":54.471420,"longitude":-0.601720},"prices":{"E10":140.90,"E5":150.90,"B7":147.90}},{"site_id":"u124n4xpsybv","brand":"Sainsbury's","address":"Creswells Lane","postcode":"CB7 4AS","location":{"latitude":52.397870,"longitude":0.273490},"prices":{"E10":142.90,"E5":152.90,"B7":154.90}},{"site_id":"gcq3n0d9y07d","brand":"Sainsbury's","address":"Windermere Drive","postcode":"WR4 9JN","location":{"latitude":52.210080,"longitude":-2.193570},"prices":{"E10":144.90,"E5":154.90,"B7":149.90}},{"site_id":"gcrnkc04g225","brand":"Sainsbury's","address":"Nottingham Road","postcode":"NG18 1BW","location":{"latitude":53.135850,"longitude":-1.197370},"prices":{"E10":141.90,"E5":151.90,"B7":146.90}},{"site_id":"gcybu5dre7c6","brand":"Sainsbury's","address":"Etherston Avenue","postcode":"NE7 7JW","location":{"latitude":54.996120,"longitude":-1.578800},"prices":{"E10":143.90,"E5":153.90,"B7":152.90}},{"site_id":"gceyygyumz5b","brand":"Sainsbury's","address":"10 Balloo Link","postcode":"BT19 7HJ","location":{"latitude":54.645390,"longitude":-5.670410},"prices":{"E10":138.90,"E5":148.90,"B7":148.90}},{"site_id":"u120gwg2s7s7","brand":"Sainsbury's","address":"Brooks Road","postcode":"CB1 3HP","location":{"latitude":52.200270,"longitude":0.158460},"prices":{"E10":146.90,"E5":156.90,"B7":155.90}},{"site_id":"gcyk0xzg9pye","brand":"Sainsbury's","address":"Pinnaclehill Industrial Estate","postcode":"TD5 8DW","location":{"latitude":55.590090,"longitude":-2.428270},"prices":{"E10":145.90,"E5":155.90,"B7":151.90}},{"site_id":"gcvmzue14nuh","brand":"Sainsbury's","address":"Unit 1, Almondvale Retail Park, Almondvale South","postcode":"EH54 6RQ","location":{"latitude":55.879420,"longitude":-3.522400},"prices":{"E10":145.90,"E5":155.90,"B7":153.90}},{"site_id":"gcnhchhrjkd5","brand":"Sainsbury's","address":"Serbert Way, Portishead","postcode":"BS20 7GD","location":{"latitude":51.483160,"longitude":-2.762490},"prices":{"E10":145.90,"E5":155.90,"B7":155.90}},{"site_id":"gfjr86s0yewc","brand":"Sainsbury's","address":"Balmakeith Business Park, Forres Road","postcode":"IV12 5QF","location":{"latitude":57.582240,"longitude":-3.850420},"prices":{"E10":141.90,"E5":151.90,"B7":152.90}},{"site_id":"gcusmfdcqb6m","brand":"Sainsbury's","address":"Ayr Road","postcode":"KA12 8BH","location":{"latitude":55.604770,"longitude":-4.665120},"prices":{"E10":140.90,"E5":150.90,"B7":149.90}},{"site_id":"gctgx69tx3tg","brand":"Sainsbury's","address":"253 Lancaster Road","postcode":"LA4 5TJ","location":{"latitude":54.067420,"longitude":-2.843080},"prices":{"E10":146.90,"E5":156.90,"B7":154.90}},{"site_id":"gcjvecgsr5b6","brand":"Sainsbury's","address":"Albany Street","postcode":"NP20 5NJ","location":{"latitude":51.602160,"longitude":-2.994160},"prices":{"E10":142.90,"E5":152.90,"B7":151.90}},{"site_id":"gcnvx84f5msc","brand":"Sainsbury's","address":"Limborough Road","postcode":"OX12 9AJ","location":{"latitude":51.592170,"longitude":-1.424300},"prices":{"E10":143.90,"E5":153.90,"B7":150.90}},{"site_id":"u10egzn4ckug","brand":"Sainsbury's","address":"Bysing Wood Road","postcode":"ME13 7UD","location":{"latitude":51.323130,"longitude":0.876220},"prices":{"E10":142.90,"E5":null,"B7":152.90}},{"site_id":"gcy52d149uwx","brand":"Sainsbury's","address":"Commercial Road","postcode":"TD9 7AD","location":{"latitude":55.426480,"longitude":-2.789070},"prices":{"E10":143.90,"E5":153.90,"B7":152.90}},{"site_id":"gcw6qs8jh6xz","brand":"Sainsbury's","address":"North Valley Road","postcode":"BB8 9HY","location":{"latitude":53.858600,"longitude":-2.175100},"prices":{"E10":143.90,"E5":153.90,"B7":151.90}},{"site_id":"gcuvug5e52se","brand":"Sainsbury's","address":"110 Kings Inch Drive","postcode":"G51 4BT","location":{"latitude":55.871490,"longitude":-4.356620},"prices":{"E10":143.90,"E5":153.90,"B7":153.90}},{"site_id":"gcjtzezj7yby","brand":"Sainsbury's","address":"Newbridge Rd Industrial Estate, Pontllanfraith","postcode":"NP12 2AN","location":{"latitude":51.657280,"longitude":-3.176260},"prices":{"E10":144.90,"E5":154.90,"B7":151.90}},{"site_id":"gcnrh8e5xf8f","brand":"Sainsbury's","address":"St. Ann Way","postcode":"GL2 5SA","location":{"latitude":51.858830,"longitude":-2.258730},"prices":{"E10":140.90,"E5":150.90,"B7":147.90}},{"site_id":"gcqd5n52jcwf","brand":"Sainsbury's","address":"Frankley Beeches Road","postcode":"B31 5AA","location":{"latitude":52.415780,"longitude":-1.972820},"prices":{"E10":141.90,"E5":151.90,"B7":150.90}},{"site_id":"gcqqnmtyc0r2","brand":"Sainsbury's","address":"Wharf Road, Biddulph","postcode":"ST8 6AJ","location":{"latitude":53.117310,"longitude":-2.178330},"prices":{"E10":143.90,"E5":153.90,"B7":148.90}},{"site_id":"gcn76gsz0k74","brand":"Sainsbury's","address":"Wessex Fields","postcode":"BA11 4DH","location":{"latitude":51.216740,"longitude":-2.333550},"prices":{"E10":148.90,"E5":158.90,"B7":159.90}},{"site_id":"gcwyc6x7q3hd","brand":"Sainsbury's","address":"St. Helen Auckland","postcode":"DL14 9AE","location":{"latitude":54.638320,"longitude":-1.692650},"prices":{"E10":140.90,"E5":150.90,"B7":149.90}},{"site_id":"gbvxc5nwk8x9","brand":"Sainsbury's","address":"Exeter Road","postcode":"EX7 0SB","location":{"latitude":50.598610,"longitude":-3.462550},"prices":{"E10":143.90,"E5":153.90,"B7":154.90}},{"site_id":"gcvherh3rvnk","brand":"Sainsbury's","address":"Kirk Street","postcode":"ML10 6BA","location":{"latitude":55.673460,"longitude":-4.069750},"prices":{"E10":142.90,"E5":152.90,"B7":146.90}},{"site_id":"gcewxbqt8q3m","brand":"Sainsbury's","address":"Unit 28, Kennedy Centre, Falls Road","postcode":"BT11 9AE","location":{"latitude":54.582430,"longitude":-5.978610},"prices":{"E10":140.90,"E5":150.90,"B7":145.90}},{"site_id":"gcenn5ffp9z4","brand":"Sainsbury's","address":"Unit 14, The Oaks Centre, Oaks Road","postcode":"BT71 4NA","location":{"latitude":54.513140,"longitude":-6.763470},"prices":{"E10":137.90,"E5":147.90,"B7":148.90}},{"site_id":"gcqjyyde4enq","brand":"Sainsbury's","address":"Middlewich Road","postcode":"CW5 6PH","location":{"latitude":53.078230,"longitude":-2.512320},"prices":{"E10":145.90,"E5":155.90,"B7":150.90}},{"site_id":"gcqmt5q8rt1g","brand":"Sainsbury's","address":"Liverpool Road","postcode":"ST5 2AF","location":{"latitude":53.015970,"longitude":-2.231960},"prices":{"E10":143.90,"E5":153.90,"B7":151.90}},{"site_id":"u10x4vdwx096","brand":"Sainsbury's","address":"1 Western Approach, Stanway","postcode":"CO3 8AA","location":{"latitude":51.886800,"longitude":0.827710},"prices":{"E10":144.90,"E5":154.90,"B7":154.90}},{"site_id":"gbukbqbpsxyn","brand":"Sainsbury's","address":"Clodgey Lane","postcode":"TR13 8BN","location":{"latitude":50.092120,"longitude":-5.262250},"prices":{"E10":141.90,"E5":151.90,"B7":151.90}},{"site_id":"gbvqmvrnpemk","brand":"Sainsbury's","address":"Nelson Road","postcode":"TQ6 9AH","location":{"latitude":50.347270,"longitude":-3.604560},"prices":{"E10":148.90,"E5":null,"B7":158.90}},{"site_id":"gcvwnpr7nxvf","brand":"Sainsbury's","address":"39 Westfield Road","postcode":"EH11 2QW","location":{"latitude":55.938820,"longitude":-3.241710},"prices":{"E10":143.90,"E5":153.90,"B7":152.90}},{"site_id":"gcjt4vq2r826","brand":"Sainsbury's","address":"Heol y Pant, Talbot Green","postcode":"CF72 8FN","location":{"latitude":51.532790,"longitude":-3.385870},"prices":{"E10":142.90,"E5":null,"B7":151.90}},{"site_id":"u10mje3tnzyq","brand":"Sainsbury's","address":"Knightswick Centre","postcode":"SS8 7AD","location":{"latitude":51.522660,"longitude":0.595620},"prices":{"E10":144.90,"E5":154.90,"B7":151.90}},{"site_id":"gcrjb4pbbu5x","brand":"Sainsbury's","address":"Butterley","postcode":"DE5 3QP","location":{"latitude":53.053130,"longitude":-1.395570},"prices":{"E10":143.90,"E5":153.90,"B7":151.90}},{"site_id":"gcqddjf52whw","brand":"Sainsbury's","address":"Freeth Street","postcode":"B69 3DB","location":{"latitude":52.502880,"longitude":-2.018710},"prices":{"E10":143.90,"E5":153.90,"B7":150.90}},{"site_id":"gceyf8wcf5ds","brand":"Sainsbury's","address":"Holywood Exchange, 302 Airport Road West","postcode":"BT3 9EJ","location":{"latitude":54.627090,"longitude":-5.857340},"prices":{"E10":138.90,"E5":148.90,"B7":148.90}},{"site_id":"gcqmw0xde7hz","brand":"Sainsbury's","address":"Minton House, London Road","postcode":"ST4 7QD","location":{"latitude":53.001240,"longitude":-2.186820},"prices":{"E10":143.90,"E5":153.90,"B7":151.90}},{"site_id":"gcqzzu7d666q","brand":"Sainsbury's","address":"Wreakes Lane","postcode":"S18 1NW","location":{"latitude":53.417300,"longitude":-1.412330},"prices":{"E10":141.90,"E5":151.90,"B7":151.90}},{"site_id":"gcrwdvdzhjjq","brand":"Sainsbury's","address":"Tritton Road","postcode":"LN6 7QN","location":{"latitude":53.205270,"longitude":-0.578320},"prices":{"E10":143.90,"E5":153.90,"B7":150.90}},{"site_id":"gcqzwky7dt4f","brand":"Sainsbury's","address":"The Moor, Nrth Meadowhall Road","postcode":"S9 1EQ","location":{"latitude":53.376330,"longitude":-1.474460},"prices":{"E10":143.90,"E5":153.90,"B7":151.90}},{"site_id":"gcrceyswjn46","brand":"Sainsbury's","address":"St. Germain Walk","postcode":"PE29 3FG","location":{"latitude":52.331690,"longitude":-0.180370},"prices":{"E10":147.90,"E5":157.90,"B7":155.90}},{"site_id":"gcqdz066mpf6","brand":"Sainsbury's","address":"Castle Vale Retail Park, Chester Road, Castle Vale","postcode":"B35 6HB","location":{"latitude":52.516450,"longitude":-1.798450},"prices":{"E10":142.90,"E5":152.90,"B7":152.90}},{"site_id":"gcp06w0ty397","brand":"Sainsbury's","address":"Hunnycross Way","postcode":"PO30 5ZB","location":{"latitude":50.702900,"longitude":-1.295430},"prices":{"E10":143.90,"E5":null,"B7":153.90}},{"site_id":"gcrjw0m0q74s","brand":"Sainsbury's","address":"Sir John Robinson Way, Arnold","postcode":"NG5 6BN","location":{"latitude":52.999480,"longitude":-1.135440},"prices":{"E10":142.90,"E5":152.90,"B7":152.90}},{"site_id":"gbvrqjw549w7","brand":"Sainsbury's","address":"Penn Inn","postcode":"TQ12 1BN","location":{"latitude":50.523900,"longitude":-3.595160},"prices":{"E10":141.90,"E5":151.90,"B7":151.90}},{"site_id":"gcw0wefzn389","brand":"Sainsbury's","address":"Cricketers Way, Westhoughton","postcode":"BL5 3ZS","location":{"latitude":53.547200,"longitude":-2.522810},"prices":{"E10":140.90,"E5":150.90,"B7":150.90}},{"site_id":"gcnx32dcwtvy","brand":"Sainsbury's","address":"Priors Road","postcode":"GL52 5AQ","location":{"latitude":51.902450,"longitude":-2.050380},"prices":{"E10":144.90,"E5":154.90,"B7":152.90}},{"site_id":"gcrp3qdq10h4","brand":"Sainsbury's","address":"Lower Mall Level, Crystal Peaks","postcode":"S20 7PJ","location":{"latitude":53.342400,"longitude":-1.348180},"prices":{"E10":143.90,"E5":153.90,"B7":151.90}},{"site_id":"gcqyk3twqkdd","brand":"Sainsbury's","address":"Cawdor Way","postcode":"DE4 3SP","location":{"latitude":53.139220,"longitude":-1.563220},"prices":{"E10":142.90,"E5":152.90,"B7":150.90}},{"site_id":"gcq59r6sbw6x","brand":"Sainsbury's","address":"Meole Brace Retail Park, Hereford Road","postcode":"SY3 9NB","location":{"latitude":52.687160,"longitude":-2.754110},"prices":{"E10":141.90,"E5":151.90,"B7":150.90}},{"site_id":"gcwyht6k0uuz","brand":"Sainsbury's","address":"Victoria Road","postcode":"DL1 5JG","location":{"latitude":54.521740,"longitude":-1.556930},"prices":{"E10":143.90,"E5":153.90,"B7":152.90}},{"site_id":"gcrscrx9rndm","brand":"Sainsbury's","address":"London Road","postcode":"NG31 6HJ","location":{"latitude":52.907660,"longitude":-0.637590},"prices":{"E10":144.90,"E5":154.90,"B7":154.90}},{"site_id":"gcxsy9h0134e","brand":"Sainsbury's","address":"Falsgrave Road","postcode":"YO12 5EA","location":{"latitude":54.277960,"longitude":-0.411930},"prices":{"E10":143.90,"E5":153.90,"B7":152.90}},{"site_id":"gcpvxd557e9b","brand":"Sainsbury's","address":"11 Walthamstow Avenue","postcode":"E4 8ST","location":{"latitude":51.603360,"longitude":-0.017700},"prices":{"E10":142.90,"E5":152.90,"B7":152.90}},{"site_id":"gcruk6nsmk6m","brand":"Sainsbury's","address":"Holland Market","postcode":"PE11 1RQ","location":{"latitude":52.790060,"longitude":-0.155640},"prices":{"E10":140.90,"E5":150.90,"B7":151.90}},{"site_id":"gcyb7qhxz6yg","brand":"Sainsbury's","address":"Eleventh Avenue, Team Valley Trading Estate","postcode":"NE11 0JY","location":{"latitude":54.922000,"longitude":-1.608490},"prices":{"E10":143.90,"E5":153.90,"B7":153.90}},{"site_id":"gcx8bgzv8ec4","brand":"Sainsbury's","address":"Doncaster Road","postcode":"DN15 7DE","location":{"latitude":53.590900,"longitude":-0.659500},"prices":{"E10":141.90,"E5":151.90,"B7":151.90}},{"site_id":"gcyc7geu11gx","brand":"Sainsbury's","address":"Petrol Station","postcode":"NE23 6YD","location":{"latitude":55.083400,"longitude":-1.587820},"prices":{"E10":144.90,"E5":154.90,"B7":153.90}},{"site_id":"u10hyttvhekm","brand":"Sainsbury's","address":"Howard Road, Chafford Hundred","postcode":"RM16 6YJ","location":{"latitude":51.491050,"longitude":0.293740},"prices":{"E10":142.90,"E5":152.90,"B7":152.90}},{"site_id":"gcxn3w3juz59","brand":"Sainsbury's","address":"Whitehouse Farm, Bishopton Road West","postcode":"TS19 0QB","location":{"latitude":54.571490,"longitude":-1.338750},"prices":{"E10":143.90,"E5":153.90,"B7":152.90}},{"site_id":"gcq6h9r9mnyc","brand":"Sainsbury's","address":"2 Carpet Trades Way","postcode":"DY11 6XP","location":{"latitude":52.389930,"longitude":-2.252660},"prices":{"E10":143.90,"E5":153.90,"B7":151.90}},{"site_id":"gcpjeg53dnsx","brand":"Sainsbury's","address":"Central Drive","postcode":"OX11 7ND","location":{"latitude":51.608570,"longitude":-1.236900},"prices":{"E10":140.90,"E5":150.90,"B7":148.90}},{"site_id":"gcw2xfxf61cv","brand":"Sainsbury's","address":"60 Union Street","postcode":"OL1 1DJ","location":{"latitude":53.539520,"longitude":-2.109630},"prices":{"E10":142.90,"E5":152.90,"B7":150.90}},{"site_id":"gcewn005qhs4","brand":"Sainsbury's","address":"5 Sprucefield Park","postcode":"BT27 5UQ","location":{"latitude":54.492770,"longitude":-6.064190},"prices":{"E10":138.90,"E5":null,"B7":144.90}},{"site_id":"gcquymrwggfw","brand":"Sainsbury's","address":"1 Peak Drive","postcode":"DE24 8EB","location":{"latitude":52.896230,"longitude":-1.472690},"prices":{"E10":144.90,"E5":154.90,"B7":150.90}},{"site_id":"gcw821ez6mwm","brand":"Sainsbury's","address":"2 Lord Sheldon Way","postcode":"OL6 7UB","location":{"latitude":53.490960,"longitude":-2.104120},"prices":{"E10":141.90,"E5":151.90,"B7":151.90}},{"site_id":"gcqrxwku99pe","brand":"Sainsbury's","address":"London Road, Hazel Grove ","postcode":"SK7 4AW","location":{"latitude":53.384720,"longitude":-2.124750},"prices":{"E10":142.90,"E5":152.90,"B7":151.90}},{"site_id":"u12ux85em30w","brand":"Sainsbury's","address":"Bacton Road","postcode":"NR28 9DS","location":{"latitude":52.822830,"longitude":1.389310},"prices":{"E10":144.90,"E5":154.90,"B7":154.90}},{"site_id":"gcqe0wfjbreb","brand":"Sainsbury's","address":"Rookery Street","postcode":"WV11 1UP","location":{"latitude":52.596700,"longitude":-2.084640},"prices":{"E10":141.90,"E5":151.90,"B7":150.90}},{"site_id":"gbvqy6fzek62","brand":"Sainsbury's","address":"Yalberton Road","postcode":"TQ4 7PE","location":{"latitude":50.421690,"longitude":-3.588610},"prices":{"E10":138.90,"E5":148.90,"B7":149.90}},{"site_id":"gcp7ywsyzwty","brand":"Sainsbury's","address":"Blackwater Valley Road","postcode":"GU15 3YN","location":{"latitude":51.321080,"longitude":-0.762190},"prices":{"E10":143.90,"E5":153.90,"B7":151.90}},{"site_id":"u12dz01z0je6","brand":"Sainsbury's","address":"High Street","postcode":"NR17 2EH","location":{"latitude":52.515880,"longitude":1.013150},"prices":{"E10":147.90,"E5":157.90,"B7":156.90}},{"site_id":"gcpyryfh00r6","brand":"Sainsbury's","address":"Brewery Road","postcode":"EN11 8HF","location":{"latitude":51.761400,"longitude":-0.008230},"prices":{"E10":142.90,"E5":152.90,"B7":146.90}},{"site_id":"gcp6tccyussj","brand":"Sainsbury's","address":"Midhurst Road","postcode":"GU30 7TW","location":{"latitude":51.075250,"longitude":-0.799400},"prices":{"E10":148.90,"E5":158.90,"B7":153.90}},{"site_id":"gcvzetuedqme","brand":"Sainsbury's","address":"Riverside Road","postcode":"KY8 4LQ","location":{"latitude":56.194330,"longitude":-3.003970},"prices":{"E10":145.90,"E5":155.90,"B7":154.90}},{"site_id":"gcnk3cxw13z7","brand":"Sainsbury's","address":"13 Victoria Bridge Road, Green Park Station","postcode":"BA2 3EH","location":{"latitude":51.381350,"longitude":-2.373670},"prices":{"E10":143.90,"E5":153.90,"B7":153.90}},{"site_id":"gcj2rqxdpfcq","brand":"Sainsbury's","address":"Alphington Road","postcode":"EX2 8NH","location":{"latitude":50.705010,"longitude":-3.537950},"prices":{"E10":145.90,"E5":155.90,"B7":153.90}},{"site_id":"gctbhd9dwmpy","brand":"Sainsbury's","address":"Rice Lane","postcode":"L9 1NL","location":{"latitude":53.451690,"longitude":-2.963970},"prices":{"E10":142.90,"E5":null,"B7":151.90}},{"site_id":"gcjjwmjjp7e1","brand":"Sainsbury's","address":"Quay Parade","postcode":"SA1 8JA","location":{"latitude":51.620140,"longitude":-3.936910},"prices":{"E10":143.90,"E5":153.90,"B7":152.90}},{"site_id":"u1290tzj8mqk","brand":"Sainsbury's","address":"Bedingfeld Way","postcode":"IP32 7EJ","location":{"latitude":52.239590,"longitude":0.734730},"prices":{"E10":142.90,"E5":152.90,"B7":150.90}},{"site_id":"u105u6mp4rr1","brand":"Sainsbury's","address":"Otford Road","postcode":"TN14 5EG","location":{"latitude":51.297780,"longitude":0.193740},"prices":{"E10":146.90,"E5":156.90,"B7":154.90}}]}